[{"languages": ["English", "Spanish", "Interpretation Services Available for Non-English Languages"], "city": "Los Angeles", "state": "CA", "street": "1014 1/2 N Vermont Ave", "name": "Planned Parenthood Los Angeles", "location": ["34.0901681", "-118.2912412"], "cdclink": "https://gettested.cdc.gov/gettested_redirect/16905", "zipcode": 90029, "categories": ["Chlamydia Testing", "Conventional HIV Blood Testing", "Gonorrhea Testing", "Hepatitis B Vaccine", "Herpes Testing", "HPV Vaccine", "Syphilis Testing"], "telephone": "800-576-5544"}, {"languages": ["English", "Spanish"], "city": "Los Angeles", "state": "CA", "street": "1300 N Vermont Ave", "name": "AIDS Healthcare Foundation", "location": ["34.0962209", "-118.2905784"], "cdclink": "https://gettested.cdc.gov/gettested_redirect/36348", "zipcode": 90027, "categories": ["Chlamydia Testing", "Rapid HIV Blood Testing", "Syphilis Testing"], "telephone": "323-662-0492"}, {"languages": ["Chinese", "English", "Japanese", "Korean", "Spanish", "Tagalog", "Vietnamese", "Cambodian/Khmer"], "city": "Los Angeles", "state": "CA", "street": "1530 Hillhurst Ave", "name": "Asian Pacific Health Care Venture Incorporated", "location": ["34.0989362", "-118.2870393"], "cdclink": "https://gettested.cdc.gov/gettested_redirect/34347", "zipcode": 90027, "categories": ["Chlamydia Testing", "Conventional HIV Blood Testing", "Gonorrhea Testing", "Hepatitis B Vaccine", "Herpes Testing", "HPV Vaccine", "Syphilis Testing"], "telephone": "323-644-3888"}, {"languages": ["English", "Spanish"], "city": "Los Angeles", "state": "CA", "street": "4955 W Sunset Blvd", "name": "Bienestar Human Services Incorporated", "location": ["34.0983774", "-118.2974677"], "cdclink": "https://gettested.cdc.gov/gettested_redirect/18958", "zipcode": 90027, "categories": ["Rapid HIV Blood Testing"], "telephone": "323-660-9680"}, {"languages": ["English", "Spanish"], "city": "Hollywood", "state": "CA", "street": "5000 Sunset Blvd", "name": "Childrens Hospital Los Angeles", "location": ["34.0978301", "-118.2985264"], "cdclink": "https://gettested.cdc.gov/gettested_redirect/113092", "zipcode": 90027, "categories": ["HPV Vaccine", "Rapid HIV Blood Testing"], "telephone": "323-361-7514"}, {"languages": ["English", "Spanish"], "city": "Hollywood", "state": "CA", "street": "1325 N Western Ave", "name": "Covenant House California", "location": ["34.0956149", "-118.3094990"], "cdclink": "https://gettested.cdc.gov/gettested_redirect/27490", "zipcode": 90027, "categories": ["Conventional HIV Blood Testing", "HPV Vaccine"], "telephone": "510-379-1010"}, {"languages": ["English", "Spanish"], "city": "Los Angeles", "state": "CA", "street": "5205 Melrose Ave", "name": "Los Angeles County Department of Public Health", "location": ["34.0837912", "-118.3140387"], "cdclink": "https://gettested.cdc.gov/gettested_redirect/110056", "zipcode": 90038, "categories": ["Chlamydia Testing", "Conventional HIV Blood Testing", "Gonorrhea Testing", "Hepatitis B Vaccine", "Herpes Testing", "HPV Vaccine", "Syphilis Testing"], "telephone": "323-769-7800"}, {"languages": ["English"], "city": "Los Angeles", "state": "CA", "street": "1220 N Highland Ave", "name": "Los Angeles Gay and Lesbian Center", "location": ["34.0932161", "-118.3382476"], "cdclink": "https://gettested.cdc.gov/gettested_redirect/111717", "zipcode": 90038, "categories": ["Chlamydia Testing", "Gonorrhea Testing", "Rapid HIV Blood Testing", "Syphilis Testing"], "telephone": "323-860-2280"}, {"languages": ["English", "Spanish"], "city": "Los Angeles", "state": "CA", "street": "5205 Melrose Ave", "name": "Saban Community Clinic", "location": ["34.0837912", "-118.3140387"], "cdclink": "https://gettested.cdc.gov/gettested_redirect/113971", "zipcode": 90038, "categories": ["Chlamydia Testing", "Gonorrhea Testing", "Hepatitis B Vaccine", "HPV Vaccine", "Rapid HIV Blood Testing", "Syphilis Testing"], "telephone": "323-330-1819"}, {"languages": ["English", "Spanish"], "city": "Los Angeles", "state": "CA", "street": "321 N Larchmont Blvd", "name": "Hollywood Health Center", "location": ["34.0770087", "-118.3239481"], "cdclink": "https://gettested.cdc.gov/gettested_redirect/7471", "zipcode": 90004, "categories": ["Chlamydia Testing", "Conventional HIV Blood Testing", "Gonorrhea Testing", "Hepatitis B Vaccine", "Herpes Testing", "HPV Vaccine", "Syphilis Testing"], "telephone": "323-461-9355"}, {"languages": ["English", "Spanish"], "city": "Los Angeles", "state": "CA", "street": "6210 W Sunset Blvd", "name": "Hollywood Out of the Closet Thrift Store", "location": ["34.0975475", "-118.3244396"], "cdclink": "https://gettested.cdc.gov/gettested_redirect/111321", "zipcode": 90028, "categories": ["Rapid HIV Blood Testing"], "telephone": "323-467-6811"}, {"languages": ["Chinese", "English", "Japanese", "Spanish"], "city": "Los Angeles", "state": "CA", "street": "1625 N Schrader Blvd", "name": "Los Angeles LGBT Center", "location": ["34.1005263", "-118.3327332"], "cdclink": "https://gettested.cdc.gov/gettested_redirect/18306", "zipcode": 90028, "categories": ["Chlamydia Testing", "Gonorrhea Testing", "Hepatitis B Vaccine", "Herpes Testing", "HPV Vaccine", "Rapid HIV Blood Testing", "Syphilis Testing"], "telephone": "323-993-7500"}, {"languages": ["English", "Spanish"], "city": "Los Angeles", "state": "CA", "street": "6043 Hollywood Blvd", "name": "Saban Community Clinic", "location": ["34.1019044", "-118.3215724"], "cdclink": "https://gettested.cdc.gov/gettested_redirect/7710", "zipcode": 90028, "categories": ["Chlamydia Testing", "Gonorrhea Testing", "Hepatitis B Vaccine", "HPV Vaccine", "Rapid HIV Blood Testing", "Syphilis Testing"], "telephone": "323-653-1990"}, {"languages": ["Chinese", "English", "Hindi", "Japanese", "Korean", "Spanish", "Tagalog", "Vietnamese"], "city": "Los Angeles", "state": "CA", "street": "180 Union Pl", "name": "Belmont Health Center", "location": ["34.0618976", "-118.2651986"], "cdclink": "https://gettested.cdc.gov/gettested_redirect/112374", "zipcode": 90026, "categories": ["Chlamydia Testing", "Conventional HIV Blood Testing", "Gonorrhea Testing", "Herpes Testing", "HPV Vaccine", "Rapid HIV Blood Testing", "Syphilis Testing"], "telephone": "323-644-3885"}, {"languages": ["English", "Spanish"], "city": "Los Angeles", "state": "CA", "street": "1724 W Sunset Blvd", "name": "Echo Park Out of the Closet Thrift Store", "location": ["34.0773026", "-118.2594099"], "cdclink": "https://gettested.cdc.gov/gettested_redirect/111711", "zipcode": 90026, "categories": ["Rapid HIV Blood Testing"], "telephone": "213-484-3913"}, {"languages": ["English", "Spanish"], "city": "Los Angeles", "state": "CA", "street": "3324 W Sunset Blvd", "name": "Hollywood Sunset Free Clinic", "location": ["34.0870791", "-118.2758950"], "cdclink": "https://gettested.cdc.gov/gettested_redirect/4617", "zipcode": 90026, "categories": ["Chlamydia Testing", "Conventional HIV Blood Testing", "Gonorrhea Testing", "Hepatitis B Vaccine", "Syphilis Testing"], "telephone": "323-660-2400"}, {"languages": ["English", "Korean"], "city": "Los Angeles", "state": "CA", "street": "3727 W 6th St Ste 200", "name": "S Mark Taper Foundation Community Clinic", "location": ["34.0638657", "-118.3037835"], "cdclink": "https://gettested.cdc.gov/gettested_redirect/10318", "zipcode": 90020, "categories": ["Chlamydia Testing", "Conventional HIV Blood Testing", "Gonorrhea Testing", "Hepatitis B Vaccine", "Herpes Testing", "HPV Vaccine", "Syphilis Testing"], "telephone": "213-235-2500"}, {"languages": ["English", "Spanish"], "city": "Los Angeles", "state": "CA", "street": "123 S Alvarado St", "name": "Clinica Monsenor Oscar A Romero Community Health Center", "location": ["34.0661040", "-118.2710930"], "cdclink": "https://gettested.cdc.gov/gettested_redirect/25689", "zipcode": 90057, "categories": ["Chlamydia Testing", "Conventional HIV Blood Testing", "Gonorrhea Testing", "Hepatitis B Vaccine", "Herpes Testing", "Rapid HIV Blood Testing", "Syphilis Testing"], "telephone": "213-989-7700"}, {"languages": ["English", "Spanish"], "city": "Los Angeles", "state": "CA", "street": "7269 Melrose Ave", "name": "Melrose Spa", "location": ["34.0837063", "-118.3481722"], "cdclink": "https://gettested.cdc.gov/gettested_redirect/113115", "zipcode": 90046, "categories": ["Chlamydia Testing", "Gonorrhea Testing", "Rapid HIV Blood Testing", "Syphilis Testing"], "telephone": "323-937-2122"}, {"languages": ["English", "Spanish"], "city": "West Hollywood", "state": "CA", "street": "8224 Santa Monica Blvd", "name": "Out of the Closet Thrift Store - West Hollywood", "location": ["34.0905659", "-118.3678092"], "cdclink": "https://gettested.cdc.gov/gettested_redirect/113313", "zipcode": 90046, "categories": ["Rapid HIV Blood Testing"], "telephone": "323-848-9760"}, {"languages": ["English", "Spanish"], "city": "Los Angeles", "state": "CA", "street": "611 S Kingsley Dr", "name": "AIDS Project Los Angeles", "location": ["34.0630656", "-118.3031461"], "cdclink": "https://gettested.cdc.gov/gettested_redirect/10383", "zipcode": 90005, "categories": ["Rapid HIV Blood Testing"], "telephone": "213-201-1504"}, {"languages": ["English"], "city": "Los Angeles", "state": "CA", "street": "1905 Wilcox Ave", "name": "myLAB Box", "location": ["34.1054523", "-118.3311972"], "cdclink": "https://gettested.cdc.gov/gettested_redirect/114434", "zipcode": 90068, "categories": ["Chlamydia Testing", "Conventional HIV Blood Testing", "Gonorrhea Testing", "Rapid HIV Blood Testing"], "telephone": "213-290-4571"}, {"languages": ["Arabic", "English", "French", "Spanish", "Vietnamese"], "city": "Los Angeles", "state": "CA", "street": "5901 W Olympic Blvd", "name": "PrEP4LA", "location": ["34.0579333", "-118.3602384"], "cdclink": "https://gettested.cdc.gov/gettested_redirect/114041", "zipcode": 90036, "categories": ["Chlamydia Testing", "Conventional HIV Blood Testing", "Gonorrhea Testing", "Herpes Testing", "Syphilis Testing"], "telephone": "310-710-5220"}, {"languages": ["Chinese", "English", "Spanish", "Vietnamese"], "city": "Los Angeles", "state": "CA", "street": "767 N Hill St", "name": "Chinatown Service Center", "location": ["34.0626634", "-118.2400525"], "cdclink": "https://gettested.cdc.gov/gettested_redirect/13788", "zipcode": 90012, "categories": ["Chlamydia Testing", "Conventional HIV Blood Testing", "Gonorrhea Testing", "Hepatitis B Vaccine", "Syphilis Testing"], "telephone": "213-808-1792"}, {"languages": ["English", "Spanish"], "city": "Los Angeles", "state": "CA", "street": "241 N Figueroa St", "name": "Los Angeles County Department of Public Health", "location": ["34.0593040", "-118.2503878"], "cdclink": "https://gettested.cdc.gov/gettested_redirect/111330", "zipcode": 90012, "categories": ["Chlamydia Testing", "Conventional HIV Blood Testing", "Gonorrhea Testing", "Hepatitis B Vaccine", "Herpes Testing", "HPV Vaccine", "Syphilis Testing"], "telephone": "213-240-8204"}, {"languages": ["English", "Spanish"], "city": "West Hollywood", "state": "CA", "street": "8745 Santa Monica Blvd", "name": "Los Angeles LGBT Center", "location": ["34.0868550", "-118.3814866"], "cdclink": "https://gettested.cdc.gov/gettested_redirect/109884", "zipcode": 90069, "categories": ["Chlamydia Testing", "Gonorrhea Testing", "Rapid HIV Blood Testing", "Syphilis Testing"], "telephone": "323-993-7440"}, {"languages": ["English", "Spanish"], "city": "Los Angeles", "state": "CA", "street": "9201 Sunset Blvd", "name": "Mens Health Foundation", "location": ["34.0908596", "-118.3926447"], "cdclink": "https://gettested.cdc.gov/gettested_redirect/114045", "zipcode": 90069, "categories": ["Chlamydia Testing", "Gonorrhea Testing", "Herpes Testing", "Rapid HIV Blood Testing", "Syphilis Testing"], "telephone": "310-550-1010"}, {"languages": ["English", "Spanish", "Interpretation Services Available for Non-English Languages"], "city": "Los Angeles", "state": "CA", "street": "825 N San Vicente Blvd", "name": "Planned Parenthood Los Angeles", "location": ["34.0854020", "-118.3849180"], "cdclink": "https://gettested.cdc.gov/gettested_redirect/114346", "zipcode": 90069, "categories": ["Chlamydia Testing", "Conventional HIV Blood Testing", "Gonorrhea Testing", "Herpes Testing", "Rapid HIV Blood Testing", "Syphilis Testing"], "telephone": "800-576-5544"}, {"languages": ["English", "Spanish"], "city": "Los Angeles", "state": "CA", "street": "2512 Alta St", "name": "St Johns Well Child and Family Center", "location": ["34.0761483", "-118.2037120"], "cdclink": "https://gettested.cdc.gov/gettested_redirect/111989", "zipcode": 90031, "categories": ["Chlamydia Testing", "Conventional HIV Blood Testing", "Gonorrhea Testing", "Hepatitis B Vaccine", "Herpes Testing", "HPV Vaccine", "Syphilis Testing"], "telephone": "323-441-2139"}, {"languages": ["English", "Spanish"], "city": "Los Angeles", "state": "CA", "street": "6200 Wilshire Blvd", "name": "Lim-Keith Multispecialty Medical Clinic Incorporated", "location": ["34.0628452", "-118.3636665"], "cdclink": "https://gettested.cdc.gov/gettested_redirect/10702", "zipcode": 90048, "categories": ["Chlamydia Testing", "Conventional HIV Blood Testing", "Gonorrhea Testing", "Herpes Testing", "Syphilis Testing"], "telephone": "323-964-1440"}, {"languages": ["English", "Spanish"], "city": "Los Angeles", "state": "CA", "street": "8405 Beverly Blvd", "name": "Saban Community Clinic", "location": ["34.0763488", "-118.3734130"], "cdclink": "https://gettested.cdc.gov/gettested_redirect/111329", "zipcode": 90048, "categories": ["Chlamydia Testing", "Gonorrhea Testing", "Hepatitis B Vaccine", "HPV Vaccine", "Rapid HIV Blood Testing", "Syphilis Testing"], "telephone": "323-653-1990"}, {"languages": ["English", "Spanish"], "city": "Los Angeles", "state": "CA", "street": "99 N La Cienega Blvd", "name": "AIDS Healthcare Foundation", "location": ["34.0671733", "-118.3766312"], "cdclink": "https://gettested.cdc.gov/gettested_redirect/29475", "zipcode": 90211, "categories": ["Chlamydia Testing", "Conventional HIV Blood Testing", "Gonorrhea Testing", "Rapid HIV Blood Testing", "Syphilis Testing"], "telephone": "310-657-9353"}, {"languages": ["English", "Spanish"], "city": "Beverly Hills", "state": "CA", "street": "8641 Wilshire Blvd", "name": "Dr Karen Sandler Medical Practice", "location": ["34.0663213", "-118.3799095"], "cdclink": "https://gettested.cdc.gov/gettested_redirect/101097", "zipcode": 90211, "categories": ["Chlamydia Testing", "Conventional HIV Blood Testing", "Gonorrhea Testing", "Hepatitis B Vaccine", "Rapid HIV Blood Testing"], "telephone": "310-854-2401"}, {"languages": ["English", "Spanish"], "city": "Beverly Hills", "state": "CA", "street": "150 N Robertson Blvd", "name": "Pacific Oaks Medical Group", "location": ["34.0684520", "-118.3834054"], "cdclink": "https://gettested.cdc.gov/gettested_redirect/10695", "zipcode": 90211, "categories": ["Chlamydia Testing", "Conventional HIV Blood Testing", "Gonorrhea Testing", "Hepatitis B Vaccine", "Herpes Testing", "HPV Vaccine", "Syphilis Testing"], "telephone": "310-652-2562"}, {"languages": ["English", "Spanish"], "city": "Los Angeles", "state": "CA", "street": "522 S San Pedro St", "name": "JWCH Institute Incorporated", "location": ["34.0433696", "-118.2440061"], "cdclink": "https://gettested.cdc.gov/gettested_redirect/31740", "zipcode": 90013, "categories": ["Chlamydia Testing", "Conventional HIV Blood Testing", "Gonorrhea Testing", "Hepatitis B Vaccine", "Herpes Testing", "Syphilis Testing"], "telephone": "866-733-5924"}, {"languages": ["English", "Spanish"], "city": "Los Angeles", "state": "CA", "street": "311 E Winston St", "name": "Los Angeles Christian Health Centers", "location": ["34.0455910", "-118.2446390"], "cdclink": "https://gettested.cdc.gov/gettested_redirect/28650", "zipcode": 90013, "categories": ["Chlamydia Testing", "Conventional HIV Blood Testing", "Gonorrhea Testing", "Syphilis Testing"], "telephone": "213-893-1960"}, {"languages": ["Chinese", "English", "Japanese", "Korean", "Spanish", "Tagalog", "Vietnamese", "Interpretation Services Available for Non-English Languages"], "city": "Los Angeles", "state": "CA", "street": "1730 W Olympic Blvd", "name": "APAIT", "location": ["34.0498585", "-118.2763978"], "cdclink": "https://gettested.cdc.gov/gettested_redirect/10285", "zipcode": 90015, "categories": ["Rapid HIV Blood Testing"], "telephone": "213-375-3830"}, {"languages": ["English"], "city": "Los Angeles", "state": "CA", "street": "5428 N Figueroa St", "name": "Northeast Community Clinic", "location": ["34.1075839", "-118.1962337"], "cdclink": "https://gettested.cdc.gov/gettested_redirect/110045", "zipcode": 90042, "categories": ["Chlamydia Testing", "Conventional HIV Blood Testing", "Gonorrhea Testing", "Hepatitis B Vaccine", "Herpes Testing", "Rapid HIV Blood Testing", "Syphilis Testing"], "telephone": "323-256-3884"}, {"languages": ["English", "Spanish"], "city": "Los Angeles", "state": "CA", "street": "5619 Monte Vista St", "name": "The Wall Las Memorias Project", "location": ["34.1117365", "-118.1953629"], "cdclink": "https://gettested.cdc.gov/gettested_redirect/110664", "zipcode": 90042, "categories": ["Rapid HIV Blood Testing"], "telephone": "323-257-1056"}, {"languages": ["English", "Spanish"], "city": "Los Angeles", "state": "CA", "street": "9911 W Pico Blvd Ste 500", "name": "Womens Clinic and Family Counseling Center", "location": ["34.0534883", "-118.4044185"], "cdclink": "https://gettested.cdc.gov/gettested_redirect/36027", "zipcode": 90035, "categories": ["Chlamydia Testing", "Conventional HIV Blood Testing", "Gonorrhea Testing", "Herpes Testing", "Syphilis Testing"], "telephone": "310-203-8899"}, {"languages": ["English", "Spanish"], "city": "Los Angeles", "state": "CA", "street": "2032 Marengo St", "name": "Clinica Monsenor Oscar A Romero", "location": ["34.0563588", "-118.2076480"], "cdclink": "https://gettested.cdc.gov/gettested_redirect/109886", "zipcode": 90033, "categories": ["Chlamydia Testing", "Gonorrhea Testing", "Herpes Testing", "Rapid HIV Blood Testing", "Syphilis Testing"], "telephone": "213-989-7700"}, {"languages": ["English", "Spanish"], "city": "Los Angeles", "state": "CA", "street": "1625 E 4th St", "name": "Los Angeles Christian Health Centers", "location": ["34.0431515", "-118.2219503"], "cdclink": "https://gettested.cdc.gov/gettested_redirect/113767", "zipcode": 90033, "categories": ["Chlamydia Testing", "Conventional HIV Blood Testing", "Gonorrhea Testing", "Syphilis Testing"], "telephone": "323-268-8391"}, {"languages": ["English", "Spanish"], "city": "Los Angeles", "state": "CA", "street": "2010 Zonal Ave", "name": "Maternal Child and Adolescent/Adult Center for Infectious Diseases and Virology", "location": ["34.0598316", "-118.2077257"], "cdclink": "https://gettested.cdc.gov/gettested_redirect/21428", "zipcode": 90033, "categories": ["Chlamydia Testing", "Conventional HIV Blood Testing", "Gonorrhea Testing", "Rapid HIV Blood Testing", "Syphilis Testing"], "telephone": "323-226-2200"}, {"languages": ["English", "Spanish", "Interpretation Services Available for Non-English Languages"], "city": "Los Angeles", "state": "CA", "street": "1057 Kingston Ave", "name": "Planned Parenthood Los Angeles", "location": ["34.0571698", "-118.2097930"], "cdclink": "https://gettested.cdc.gov/gettested_redirect/16913", "zipcode": 90033, "categories": ["Chlamydia Testing", "Conventional HIV Blood Testing", "Gonorrhea Testing", "Hepatitis B Vaccine", "Herpes Testing", "HPV Vaccine", "Syphilis Testing"], "telephone": "800-576-5544"}, {"languages": ["English", "Spanish", "Interpretation Services Available for Non-English Languages"], "city": "Los Angeles", "state": "CA", "street": "1300 N Mission Rd", "name": "Rand Schrader HIV Clinic", "location": ["34.0626925", "-118.2106958"], "cdclink": "https://gettested.cdc.gov/gettested_redirect/2329", "zipcode": 90033, "categories": ["Conventional HIV Blood Testing", "Rapid HIV Blood Testing"], "telephone": "323-343-8288"}, {"languages": ["English", "Spanish"], "city": "Los Angeles", "state": "CA", "street": "2146 W Adams Blvd", "name": "West Adams Carl Bean House", "location": ["34.0325316", "-118.3132138"], "cdclink": "https://gettested.cdc.gov/gettested_redirect/29473", "zipcode": 90018, "categories": ["Chlamydia Testing", "Conventional HIV Blood Testing", "Gonorrhea Testing", "Rapid HIV Blood Testing", "Syphilis Testing"], "telephone": "323-766-2170"}, {"languages": ["English", "Spanish", "Interpretation Services Available for Non-English Languages"], "city": "Los Angeles", "state": "CA", "street": "1578 Colorado Blvd", "name": "Planned Parenthood Pasadena and San Gabriel Valley Incorporated", "location": ["34.1391080", "-118.2009526"], "cdclink": "https://gettested.cdc.gov/gettested_redirect/111086", "zipcode": 90041, "categories": ["Chlamydia Testing", "Gonorrhea Testing", "HPV Vaccine", "Rapid HIV Blood Testing", "Syphilis Testing"], "telephone": "626-798-0706"}, {"languages": ["English", "Spanish", "Interpretation Services Available for Non-English Languages"], "city": "Los Angeles", "state": "CA", "street": "400 W 30th St", "name": "Planned Parenthood Los Angeles", "location": ["34.0237259", "-118.2760168"], "cdclink": "https://gettested.cdc.gov/gettested_redirect/111232", "zipcode": 90007, "categories": ["Chlamydia Testing", "Conventional HIV Blood Testing", "Gonorrhea Testing", "Hepatitis B Vaccine", "Herpes Testing", "Syphilis Testing"], "telephone": "800-576-5544"}, {"languages": ["English", "Spanish"], "city": "Los Angeles", "state": "CA", "street": "1910 S Magnolia Ave Ste 101", "name": "St Johns Well Child and Family Center at Magnolia Place", "location": ["34.0394092", "-118.2856934"], "cdclink": "https://gettested.cdc.gov/gettested_redirect/111985", "zipcode": 90007, "categories": ["Chlamydia Testing", "Conventional HIV Blood Testing", "Gonorrhea Testing", "Hepatitis B Vaccine", "Herpes Testing", "HPV Vaccine", "Rapid HIV Blood Testing", "Syphilis Testing"], "telephone": "213-749-0947"}, {"languages": ["English", "Spanish"], "city": "Los Angeles", "state": "CA", "street": "515 E 6th St", "name": "JWCH Medical Clinic at the Weingart Medical Center", "location": ["34.0428933", "-118.2446191"], "cdclink": "https://gettested.cdc.gov/gettested_redirect/7746", "zipcode": 90021, "categories": ["Chlamydia Testing", "Conventional HIV Blood Testing", "Gonorrhea Testing", "Herpes Testing", "HPV Vaccine", "Rapid HIV Blood Testing", "Syphilis Testing"], "telephone": "213-689-2132"}, {"languages": ["English", "Spanish"], "city": "Los Angeles", "state": "CA", "street": "615 Kohler St", "name": "Midtowne Spa Los Angeles", "location": ["34.0391396", "-118.2411467"], "cdclink": "https://gettested.cdc.gov/gettested_redirect/113114", "zipcode": 90021, "categories": ["Chlamydia Testing", "Gonorrhea Testing", "Rapid HIV Blood Testing", "Syphilis Testing"], "telephone": "213-680-1838"}, {"languages": ["English"], "city": "Los Angeles", "state": "CA", "street": "1400 E Olympic Blvd", "name": "Realistic Education in Action Coalition to Foster Health", "location": ["34.0305857", "-118.2434204"], "cdclink": "https://gettested.cdc.gov/gettested_redirect/112217", "zipcode": 90021, "categories": ["Rapid HIV Blood Testing"], "telephone": "213-622-1650"}, {"languages": ["English", "Spanish"], "city": "Los Angeles", "state": "CA", "street": "3743 S Labrea Ave", "name": "APLA Health & Wellness Center", "location": ["34.0187271", "-118.3563291"], "cdclink": "https://gettested.cdc.gov/gettested_redirect/113576", "zipcode": 90016, "categories": ["Chlamydia Testing", "Gonorrhea Testing", "Rapid HIV Blood Testing", "Syphilis Testing"], "telephone": "323-329-9900"}, {"languages": ["English", "Spanish"], "city": "Los Angeles", "state": "CA", "street": "5149 W Jefferson Blvd", "name": "Minority AIDS Project", "location": ["34.0258470", "-118.3566960"], "cdclink": "https://gettested.cdc.gov/gettested_redirect/3365", "zipcode": 90016, "categories": ["Rapid HIV Blood Testing"], "telephone": "323-936-4949"}, {"languages": ["English", "Spanish", "Interpretation Services Available for Non-English Languages"], "city": "Los Angeles", "state": "CA", "street": "3637 S La Brea Ave", "name": "Planned Parenthood Los Angeles", "location": ["34.0206509", "-118.3561441"], "cdclink": "https://gettested.cdc.gov/gettested_redirect/111782", "zipcode": 90016, "categories": ["Chlamydia Testing", "Conventional HIV Blood Testing", "Gonorrhea Testing", "Hepatitis B Vaccine", "Syphilis Testing"], "telephone": "800-576-5544"}, {"languages": ["English", "Spanish"], "city": "Los Angeles", "state": "CA", "street": "512 S Indiana St", "name": "AltaMed Medical Group", "location": ["34.0299853", "-118.1919830"], "cdclink": "https://gettested.cdc.gov/gettested_redirect/110434", "zipcode": 90063, "categories": ["Hepatitis B Vaccine", "Rapid HIV Blood Testing"], "telephone": "323-307-0160"}, {"languages": ["English", "Spanish"], "city": "Glendale", "state": "CA", "street": "501 N Glendale Ave", "name": "Los Angeles County Department of Public Health", "location": ["34.1531936", "-118.2442653"], "cdclink": "https://gettested.cdc.gov/gettested_redirect/3372", "zipcode": 91206, "categories": ["Chlamydia Testing", "Conventional HIV Blood Testing", "Gonorrhea Testing", "Hepatitis B Vaccine", "Herpes Testing", "HPV Vaccine", "Syphilis Testing"], "telephone": "818-500-5750"}, {"languages": ["English", "Spanish"], "city": "Los Angeles", "state": "CA", "street": "1010 Veteran Ave", "name": "University of California Los Angeles", "location": ["34.0605227", "-118.4478328"], "cdclink": "https://gettested.cdc.gov/gettested_redirect/29821", "zipcode": 90095, "categories": ["Chlamydia Testing", "Conventional HIV Blood Testing", "Gonorrhea Testing", "Syphilis Testing"], "telephone": "310-825-5906"}, {"languages": ["Chinese", "English", "Spanish", "Vietnamese"], "city": "Alhambra", "state": "CA", "street": "320 S Garfield Ave", "name": "Chinatown Service Center", "location": ["34.0919397", "-118.1242922"], "cdclink": "https://gettested.cdc.gov/gettested_redirect/113498", "zipcode": 91801, "categories": ["Chlamydia Testing", "Conventional HIV Blood Testing", "Gonorrhea Testing", "Hepatitis B Vaccine", "Syphilis Testing"], "telephone": "626-773-3388"}, {"languages": ["English", "Spanish", "Interpretation Services Available for Non-English Languages"], "city": "Alhambra", "state": "CA", "street": "320 S Garfield Ave", "name": "Planned Parenthood Pasadena and San Gabriel Valley Incorporated", "location": ["34.0919397", "-118.1242922"], "cdclink": "https://gettested.cdc.gov/gettested_redirect/111085", "zipcode": 91801, "categories": ["Chlamydia Testing", "Gonorrhea Testing", "Herpes Testing", "HPV Vaccine", "Rapid HIV Blood Testing", "Syphilis Testing"], "telephone": "626-798-0706"}, {"languages": ["English", "Spanish", "Interpretation Services Available for Non-English Languages"], "city": "Burbank", "state": "CA", "street": "916 W Burbank Blvd", "name": "Planned Parenthood Los Angeles", "location": ["34.1835718", "-118.3222662"], "cdclink": "https://gettested.cdc.gov/gettested_redirect/110189", "zipcode": 91506, "categories": ["Chlamydia Testing", "Conventional HIV Blood Testing", "Gonorrhea Testing", "Hepatitis B Vaccine", "Herpes Testing", "Syphilis Testing"], "telephone": "800-576-5544"}, {"languages": ["English", "Spanish"], "city": "Los Angeles", "state": "CA", "street": "3756 Santa Rosalia Dr", "name": "Crenshaw Community Health Center", "location": ["34.0088198", "-118.3391612"], "cdclink": "https://gettested.cdc.gov/gettested_redirect/113133", "zipcode": 90008, "categories": ["Chlamydia Testing", "Conventional HIV Blood Testing", "Gonorrhea Testing", "Hepatitis B Vaccine", "Rapid HIV Blood Testing", "Syphilis Testing"], "telephone": "323-568-5460"}, {"languages": ["English", "Spanish"], "city": "Crenshaw", "state": "CA", "street": "3756 Santa Rosalia Dr", "name": "W King Health Care Group", "location": ["34.0088198", "-118.3391612"], "cdclink": "https://gettested.cdc.gov/gettested_redirect/114044", "zipcode": 90008, "categories": ["Chlamydia Testing", "Conventional HIV Blood Testing", "Gonorrhea Testing", "Hepatitis B Vaccine", "Syphilis Testing"], "telephone": "323-617-5409"}, {"languages": ["English", "Spanish"], "city": "Los Angeles", "state": "CA", "street": "3834 S Western Ave", "name": "Los Angeles County Department of Public Health", "location": ["34.0162773", "-118.3085083"], "cdclink": "https://gettested.cdc.gov/gettested_redirect/3194", "zipcode": 90062, "categories": ["Chlamydia Testing", "Conventional HIV Blood Testing", "Gonorrhea Testing", "Hepatitis B Vaccine", "Herpes Testing", "Syphilis Testing"], "telephone": "323-730-3507"}, {"languages": ["English", "Spanish"], "city": "North Hollywood", "state": "CA", "street": "5300 Tujunga Ave", "name": "Los Angeles County Department of Public Health", "location": ["34.1672665", "-118.3787061"], "cdclink": "https://gettested.cdc.gov/gettested_redirect/111318", "zipcode": 91601, "categories": ["Chlamydia Testing", "Conventional HIV Blood Testing", "Gonorrhea Testing", "Hepatitis B Vaccine", "Herpes Testing", "Syphilis Testing"], "telephone": "818-766-3982"}, {"languages": ["English", "Japanese", "Laotian", "Spanish", "Tagalog", "Vietnamese"], "city": "Los Angeles", "state": "CA", "street": "3834 S Western  Ave", "name": "To Help Everyone Clinic Incorporated", "location": ["34.0162773", "-118.3085083"], "cdclink": "https://gettested.cdc.gov/gettested_redirect/223", "zipcode": 90062, "categories": ["Chlamydia Testing", "Conventional HIV Blood Testing", "Gonorrhea Testing", "Hepatitis B Vaccine", "Herpes Testing", "HPV Vaccine", "Rapid HIV Blood Testing", "Syphilis Testing"], "telephone": "323-730-1920"}, {"languages": ["English", "Spanish"], "city": "Los Angeles", "state": "CA", "street": "5701 S Hoover St", "name": "Dr Louis C Frayser Clinic", "location": ["33.9899490", "-118.2874208"], "cdclink": "https://gettested.cdc.gov/gettested_redirect/111984", "zipcode": 90037, "categories": ["Chlamydia Testing", "Conventional HIV Blood Testing", "Gonorrhea Testing", "HPV Vaccine", "Syphilis Testing"], "telephone": "323-541-1616"}, {"languages": ["English", "Spanish"], "city": "Los Angeles", "state": "CA", "street": "4131 S Vermont Ave", "name": "St Johns Well Child and Family Center", "location": ["34.0087700", "-118.2928480"], "cdclink": "https://gettested.cdc.gov/gettested_redirect/111991", "zipcode": 90037, "categories": ["Chlamydia Testing", "Conventional HIV Blood Testing", "Gonorrhea Testing", "Hepatitis B Vaccine", "HPV Vaccine", "Rapid HIV Blood Testing", "Syphilis Testing"], "telephone": "323-541-1631"}, {"languages": ["English", "Spanish"], "city": "Los Angeles", "state": "CA", "street": "808 W 58th St", "name": "St Johns Well Child and Family Center", "location": ["33.9894964", "-118.2875049"], "cdclink": "https://gettested.cdc.gov/gettested_redirect/111987", "zipcode": 90037, "categories": ["Chlamydia Testing", "Conventional HIV Blood Testing", "Gonorrhea Testing", "Hepatitis B Vaccine", "Herpes Testing", "HPV Vaccine", "Rapid HIV Blood Testing", "Syphilis Testing"], "telephone": "323-541-1400"}, {"languages": ["English", "Spanish"], "city": "Los Angeles", "state": "CA", "street": "5427 E Whittier Blvd", "name": "AltaMed Medical Group", "location": ["34.0198609", "-118.1531488"], "cdclink": "https://gettested.cdc.gov/gettested_redirect/16956", "zipcode": 90022, "categories": ["Chlamydia Testing", "Gonorrhea Testing", "Hepatitis B Vaccine", "Herpes Testing", "HPV Vaccine", "Rapid HIV Blood Testing", "Syphilis Testing"], "telephone": "323-869-5450"}, {"languages": ["English", "Spanish"], "city": "Los Angeles", "state": "CA", "street": "5326 E Beverly Blvd", "name": "Bienestar Human Services Incorporated", "location": ["34.0300629", "-118.1506886"], "cdclink": "https://gettested.cdc.gov/gettested_redirect/30595", "zipcode": 90022, "categories": ["Rapid HIV Blood Testing"], "telephone": "323-727-7896"}, {"languages": ["English", "Spanish"], "city": "East Los Angeles", "state": "CA", "street": "507 S Atlantic Blvd", "name": "Bienvenidos Community Health Center", "location": ["34.0267769", "-118.1558735"], "cdclink": "https://gettested.cdc.gov/gettested_redirect/111490", "zipcode": 90022, "categories": ["Chlamydia Testing", "Conventional HIV Blood Testing", "Gonorrhea Testing", "Hepatitis B Vaccine", "Herpes Testing", "Syphilis Testing"], "telephone": "323-268-9191"}, {"languages": ["English", "Spanish"], "city": "Los Angeles", "state": "CA", "street": "1255 S Atlantic Blvd", "name": "East Los Angeles Womens Center", "location": ["34.0147490", "-118.1593480"], "cdclink": "https://gettested.cdc.gov/gettested_redirect/2340", "zipcode": 90022, "categories": ["Conventional HIV Blood Testing", "Rapid HIV Blood Testing"], "telephone": "323-526-5819"}, {"languages": ["English", "Spanish", "Interpretation Services Available for Non-English Languages"], "city": "Los Angeles", "state": "CA", "street": "5068 Whittier Blvd", "name": "Planned Parenthood Los Angeles", "location": ["34.0208520", "-118.1604277"], "cdclink": "https://gettested.cdc.gov/gettested_redirect/111165", "zipcode": 90022, "categories": ["Chlamydia Testing", "Conventional HIV Blood Testing", "Gonorrhea Testing", "Hepatitis B Vaccine", "Herpes Testing", "HPV Vaccine", "Syphilis Testing"], "telephone": "800-576-5544"}, {"languages": ["English", "Spanish"], "city": "Pasadena", "state": "CA", "street": "1845 N Fair Oaks Ave", "name": "Pasadena Public Health Department", "location": ["34.1777736", "-118.1511928"], "cdclink": "https://gettested.cdc.gov/gettested_redirect/29823", "zipcode": 91103, "categories": ["Rapid HIV Blood Testing"], "telephone": "626-744-6140"}, {"languages": ["English", "Spanish"], "city": "Sherman Oaks", "state": "CA", "street": "4835 Van Nuys Blvd", "name": "AIDS Healthcare Foundation", "location": ["34.1584538", "-118.4491651"], "cdclink": "https://gettested.cdc.gov/gettested_redirect/29478", "zipcode": 91403, "categories": ["Chlamydia Testing", "Conventional HIV Blood Testing", "Gonorrhea Testing", "Rapid HIV Blood Testing", "Syphilis Testing"], "telephone": "818-380-2626"}, {"languages": ["English"], "city": "Los Angeles", "state": "CA", "street": "4314 W Slauson Ave", "name": "Axminster Medical Group Incorporated", "location": ["33.9886612", "-118.3509358"], "cdclink": "https://gettested.cdc.gov/gettested_redirect/112973", "zipcode": 90043, "categories": ["Chlamydia Testing", "Conventional HIV Blood Testing", "Gonorrhea Testing", "Hepatitis B Vaccine", "Herpes Testing", "Syphilis Testing"], "telephone": "323-293-7171"}, {"languages": ["English"], "city": "Los Angeles", "state": "CA", "street": "6505 8th Ave", "name": "St Johns Well Child and Family Center at Hyde Park Elementary School", "location": ["33.9804011", "-118.3266717"], "cdclink": "https://gettested.cdc.gov/gettested_redirect/111990", "zipcode": 90043, "categories": ["Chlamydia Testing", "Conventional HIV Blood Testing", "Gonorrhea Testing", "Hepatitis B Vaccine", "HPV Vaccine", "Syphilis Testing"], "telephone": "323-750-9232"}, {"languages": ["English", "Spanish", "Interpretation Services Available for Non-English Languages"], "city": "Pasadena", "state": "CA", "street": "1045 N Lake Ave", "name": "Planned Parenthood Pasadena and San Gabriel Valley Incorporated", "location": ["34.1639686", "-118.1328520"], "cdclink": "https://gettested.cdc.gov/gettested_redirect/5921", "zipcode": 91104, "categories": ["Chlamydia Testing", "Gonorrhea Testing", "Herpes Testing", "HPV Vaccine", "Rapid HIV Blood Testing", "Syphilis Testing"], "telephone": "626-798-0706"}, {"languages": ["English", "Spanish"], "city": "Santa Monica", "state": "CA", "street": "2401 Lincoln Blvd", "name": "Common Ground", "location": ["34.0089278", "-118.4784095"], "cdclink": "https://gettested.cdc.gov/gettested_redirect/27420", "zipcode": 90405, "categories": ["Rapid HIV Blood Testing"], "telephone": "310-314-5480"}, {"languages": ["English", "Spanish"], "city": "Santa Monica", "state": "CA", "street": "2509 W Pico Blvd", "name": "Los Angeles County Department of Public Health", "location": ["34.0231221", "-118.4633112"], "cdclink": "https://gettested.cdc.gov/gettested_redirect/29826", "zipcode": 90405, "categories": ["Chlamydia Testing", "Conventional HIV Blood Testing", "Gonorrhea Testing", "Herpes Testing", "Syphilis Testing"], "telephone": "310-998-3203"}, {"languages": ["English", "Hindi", "Spanish", "Tagalog", "Cambodian/Khmer"], "city": "Santa Monica", "state": "CA", "street": "1711 Ocean Park Blvd", "name": "Westside Family Health Center", "location": ["34.0128606", "-118.4665556"], "cdclink": "https://gettested.cdc.gov/gettested_redirect/32016", "zipcode": 90405, "categories": ["Chlamydia Testing", "Conventional HIV Blood Testing", "Gonorrhea Testing", "Hepatitis B Vaccine", "Herpes Testing", "HPV Vaccine", "Rapid HIV Blood Testing", "Syphilis Testing"], "telephone": "310-450-2191"}, {"languages": ["English", "Spanish", "Interpretation Services Available for Non-English Languages"], "city": "Santa Monica", "state": "CA", "street": "1316 3rd St Promenade", "name": "Planned Parenthood Los Angeles", "location": ["34.0164535", "-118.4975694"], "cdclink": "https://gettested.cdc.gov/gettested_redirect/29412", "zipcode": 90401, "categories": ["Chlamydia Testing", "Conventional HIV Blood Testing", "Gonorrhea Testing", "Hepatitis B Vaccine", "Herpes Testing", "Syphilis Testing"], "telephone": "800-576-5544"}, {"languages": ["English", "Spanish"], "city": "El Monte", "state": "CA", "street": "10418 E Valley Blvd", "name": "AltaMed Health Services Corporation", "location": ["34.0759991", "-118.0460193"], "cdclink": "https://gettested.cdc.gov/gettested_redirect/100598", "zipcode": 91731, "categories": ["Chlamydia Testing", "Gonorrhea Testing", "Hepatitis B Vaccine", "Herpes Testing", "Rapid HIV Blood Testing", "Syphilis Testing"], "telephone": "626-499-9303"}, {"languages": ["English", "Spanish"], "city": "El Monte", "state": "CA", "street": "4368 Santa Anita Ave", "name": "Cleaver Family Wellness Clinic", "location": ["34.0853655", "-118.0293332"], "cdclink": "https://gettested.cdc.gov/gettested_redirect/111667", "zipcode": 91731, "categories": ["Chlamydia Testing", "Conventional HIV Blood Testing", "Gonorrhea Testing", "Herpes Testing", "Syphilis Testing"], "telephone": "626-579-0290"}, {"languages": ["English", "Spanish"], "city": "North Hollywood", "state": "CA", "street": "6801 Coldwater Canyon Ave", "name": "Valley Community Healthcare", "location": ["34.1944099", "-118.4151426"], "cdclink": "https://gettested.cdc.gov/gettested_redirect/7719", "zipcode": 91605, "categories": ["Chlamydia Testing", "Conventional HIV Blood Testing", "Gonorrhea Testing", "Hepatitis B Vaccine", "Herpes Testing", "Rapid HIV Blood Testing", "Syphilis Testing"], "telephone": "818-301-6390"}, {"languages": ["English", "Spanish", "Vietnamese"], "city": "Los Angeles", "state": "CA", "street": "5850 S Main St", "name": "Hubert H Humphrey Comprehensive Health Center", "location": ["33.9882273", "-118.2732047"], "cdclink": "https://gettested.cdc.gov/gettested_redirect/109267", "zipcode": 90003, "categories": ["Chlamydia Testing", "Conventional HIV Blood Testing", "Gonorrhea Testing", "Hepatitis B Vaccine", "Herpes Testing", "Syphilis Testing"], "telephone": "323-846-4312"}, {"languages": ["English", "Spanish", "Interpretation Services Available for Non-English Languages"], "city": "Los Angeles", "state": "CA", "street": "8520 S Broadway", "name": "Planned Parenthood Los Angeles", "location": ["33.9609286", "-118.2779251"], "cdclink": "https://gettested.cdc.gov/gettested_redirect/111161", "zipcode": 90003, "categories": ["Chlamydia Testing", "Conventional HIV Blood Testing", "Gonorrhea Testing", "Hepatitis B Vaccine", "Herpes Testing", "HPV Vaccine", "Syphilis Testing"], "telephone": "800-576-5544"}, {"languages": ["English", "Spanish"], "city": "Venice", "state": "CA", "street": "604 Rose Ave", "name": "Venice Family Clinic", "location": ["33.9990950", "-118.4715185"], "cdclink": "https://gettested.cdc.gov/gettested_redirect/111224", "zipcode": 90291, "categories": ["Chlamydia Testing", "Conventional HIV Blood Testing", "Gonorrhea Testing", "Hepatitis B Vaccine", "HPV Vaccine", "Rapid HIV Blood Testing", "Syphilis Testing"], "telephone": "310-392-9255"}, {"languages": ["English", "Spanish", "Interpretation Services Available for Non-English Languages"], "city": "Van Nuys", "state": "CA", "street": "7100 Van Nuys Blvd", "name": "Planned Parenthood Los Angeles", "location": ["34.1996190", "-118.4481230"], "cdclink": "https://gettested.cdc.gov/gettested_redirect/16911", "zipcode": 91405, "categories": ["Chlamydia Testing", "Conventional HIV Blood Testing", "Gonorrhea Testing", "Hepatitis B Vaccine", "Herpes Testing", "Syphilis Testing"], "telephone": "800-576-5544"}, {"languages": ["English", "Spanish", "Interpretation Services Available for Non-English Languages"], "city": "El Monte", "state": "CA", "street": "4786 N Peck Rd", "name": "Planned Parenthood Los Angeles", "location": ["34.0901690", "-118.0137342"], "cdclink": "https://gettested.cdc.gov/gettested_redirect/16907", "zipcode": 91732, "categories": ["Chlamydia Testing", "Conventional HIV Blood Testing", "Gonorrhea Testing", "Hepatitis B Vaccine", "Herpes Testing", "HPV Vaccine", "Rapid HIV Blood Testing", "Syphilis Testing"], "telephone": "800-576-5544"}, {"languages": ["English", "Spanish"], "city": "Los Angeles", "state": "CA", "street": "7301 S Western Ave", "name": "Florence Western Medical Clinic", "location": ["33.9734887", "-118.3092897"], "cdclink": "https://gettested.cdc.gov/gettested_redirect/32745", "zipcode": 90047, "categories": ["Chlamydia Testing", "Conventional HIV Blood Testing", "Gonorrhea Testing", "Syphilis Testing"], "telephone": "323-778-2131"}, {"languages": ["English"], "city": "Bell", "state": "CA", "street": "4129 E Gage Ave", "name": "Northeast Community Clinic", "location": ["33.9789699", "-118.1929355"], "cdclink": "https://gettested.cdc.gov/gettested_redirect/110075", "zipcode": 90201, "categories": ["Chlamydia Testing", "Conventional HIV Blood Testing", "Gonorrhea Testing", "Herpes Testing", "Rapid HIV Blood Testing", "Syphilis Testing"], "telephone": "888-311-6322"}, {"languages": ["English", "Spanish"], "city": "Bell Gardens", "state": "CA", "street": "6912 Ajax Ave", "name": "Wesley Health Centers", "location": ["33.9698860", "-118.1626783"], "cdclink": "https://gettested.cdc.gov/gettested_redirect/113801", "zipcode": 90201, "categories": ["Chlamydia Testing", "Conventional HIV Blood Testing", "Gonorrhea Testing", "Hepatitis B Vaccine", "Herpes Testing", "Syphilis Testing"], "telephone": "562-867-7999"}, {"languages": ["English"], "city": "Los Angeles", "state": "CA", "street": "10024 S Vermont Ave", "name": "Pink Lotus Health", "location": ["33.9447770", "-118.2912208"], "cdclink": "https://gettested.cdc.gov/gettested_redirect/111468", "zipcode": 90044, "categories": ["Chlamydia Testing", "Conventional HIV Blood Testing", "Gonorrhea Testing", "Syphilis Testing"], "telephone": "323-242-0139"}, {"languages": ["English", "Spanish"], "city": "Inglewood", "state": "CA", "street": "1091 S LaBrea Ave", "name": "Dr Claudia Hampton Clinic", "location": ["33.9492760", "-118.3528461"], "cdclink": "https://gettested.cdc.gov/gettested_redirect/111326", "zipcode": 90301, "categories": ["Chlamydia Testing", "Conventional HIV Blood Testing", "Gonorrhea Testing", "Hepatitis B Vaccine", "Syphilis Testing"], "telephone": "310-330-2960"}, {"languages": ["English", "Spanish"], "city": "Inglewood", "state": "CA", "street": "123 W Manchester Blvd", "name": "Los Angeles County Department of Public Health", "location": ["33.9621808", "-118.3565624"], "cdclink": "https://gettested.cdc.gov/gettested_redirect/29405", "zipcode": 90301, "categories": ["Chlamydia Testing", "Conventional HIV Blood Testing", "Gonorrhea Testing", "Hepatitis B Vaccine", "Syphilis Testing"], "telephone": "310-419-5325"}, {"languages": ["English", "Spanish"], "city": "Pico Rivera", "state": "CA", "street": "9436 Slauson Ave", "name": "AltaMed Health Medical Group", "location": ["33.9681306", "-118.0959453"], "cdclink": "https://gettested.cdc.gov/gettested_redirect/110432", "zipcode": 90660, "categories": ["Chlamydia Testing", "Gonorrhea Testing", "Hepatitis B Vaccine", "Herpes Testing", "HPV Vaccine", "Rapid HIV Blood Testing", "Syphilis Testing"], "telephone": "562-949-8717"}, {"languages": ["English", "Spanish"], "city": "Sun Valley", "state": "CA", "street": "7223 N Fair Ave", "name": "Northeast Valley Health Corporation", "location": ["34.2018353", "-118.3748849"], "cdclink": "https://gettested.cdc.gov/gettested_redirect/112864", "zipcode": 91352, "categories": ["Chlamydia Testing", "Conventional HIV Blood Testing", "Gonorrhea Testing", "Hepatitis B Vaccine", "Syphilis Testing"], "telephone": "818-432-4400"}, {"languages": ["English", "Spanish"], "city": "Los Angeles", "state": "CA", "street": "10300 S Compton Ave", "name": "Watts Health Center", "location": ["33.9429351", "-118.2458025"], "cdclink": "https://gettested.cdc.gov/gettested_redirect/9769", "zipcode": 90002, "categories": ["Chlamydia Testing", "Conventional HIV Blood Testing", "Gonorrhea Testing", "Hepatitis B Vaccine", "Herpes Testing", "Rapid HIV Blood Testing", "Syphilis Testing"], "telephone": "323-564-4331"}, {"languages": ["English", "Spanish"], "city": "Monrovia", "state": "CA", "street": "330 W Maple Ave", "name": "Los Angeles County Department of Public Health", "location": ["34.1412123", "-118.0061266"], "cdclink": "https://gettested.cdc.gov/gettested_redirect/36739", "zipcode": 91016, "categories": ["Chlamydia Testing", "Conventional HIV Blood Testing", "Gonorrhea Testing", "Hepatitis B Vaccine", "Herpes Testing", "HPV Vaccine", "Syphilis Testing"], "telephone": "626-256-1600"}, {"languages": ["English", "Spanish"], "city": "Panaroma City", "state": "CA", "street": "9140 Van Nuys Blvd", "name": "El Proyecto Del Barrio", "location": ["34.2366077", "-118.4498792"], "cdclink": "https://gettested.cdc.gov/gettested_redirect/25711", "zipcode": 91402, "categories": ["Rapid HIV Blood Testing"], "telephone": "818-892-8630"}, {"languages": ["English", "Spanish"], "city": "Van Nuys", "state": "CA", "street": "6551 Van Nuys Blvd", "name": "Northeast Valley Health Corporation", "location": ["34.2120666", "-118.4492276"], "cdclink": "https://gettested.cdc.gov/gettested_redirect/111325", "zipcode": 91402, "categories": ["Chlamydia Testing", "Gonorrhea Testing", "Herpes Testing", "Rapid HIV Blood Testing", "Syphilis Testing"], "telephone": "818-988-6335"}, {"languages": ["English", "Spanish"], "city": "Whittier", "state": "CA", "street": "12401 Slauson Ave", "name": "Whittier Rio Hondo AIDS Project", "location": ["33.9606566", "-118.0528664"], "cdclink": "https://gettested.cdc.gov/gettested_redirect/32075", "zipcode": 90606, "categories": ["Rapid HIV Blood Testing"], "telephone": "562-698-3850"}, {"languages": ["English", "Spanish"], "city": "Reseda", "state": "CA", "street": "7101 Baird Ave", "name": "Tarzana Treatment Centers Reseda", "location": ["34.1995289", "-118.5375543"], "cdclink": "https://gettested.cdc.gov/gettested_redirect/7829", "zipcode": 91335, "categories": ["Chlamydia Testing", "Gonorrhea Testing", "Rapid HIV Blood Testing", "Syphilis Testing"], "telephone": "818-342-5897"}, {"languages": ["English", "Spanish"], "city": "Los Angeles", "state": "CA", "street": "1731 E 120th St", "name": "Charles Drew University", "location": ["33.9256333", "-118.2425260"], "cdclink": "https://gettested.cdc.gov/gettested_redirect/110823", "zipcode": 90059, "categories": ["Rapid HIV Blood Testing"], "telephone": "323-563-5805"}, {"languages": ["English", "Spanish"], "city": "Los Angeles", "state": "CA", "street": "1807 E 120th St", "name": "Charles R Drew University of Medicine and Science", "location": ["33.9247951", "-118.2404110"], "cdclink": "https://gettested.cdc.gov/gettested_redirect/110728", "zipcode": 90059, "categories": ["Hepatitis B Vaccine", "Rapid HIV Blood Testing"], "telephone": "424-338-2929"}, {"languages": ["English", "Spanish"], "city": "Los Angeles", "state": "CA", "street": "11833 S Wilmington Ave", "name": "Martin Luther King Jr Center for Public Health", "location": ["33.9250700", "-118.2393560"], "cdclink": "https://gettested.cdc.gov/gettested_redirect/110046", "zipcode": 90059, "categories": ["Chlamydia Testing", "Conventional HIV Blood Testing", "Gonorrhea Testing", "Hepatitis B Vaccine", "Herpes Testing", "HPV Vaccine", "Syphilis Testing"], "telephone": "323-568-8100"}, {"languages": ["English", "Spanish", "Interpretation Services Available for Non-English Languages"], "city": "Los Angeles", "state": "CA", "street": "11722 S Wilmington Ave", "name": "Planned Parenthood Los Angeles", "location": ["33.9274808", "-118.2380175"], "cdclink": "https://gettested.cdc.gov/gettested_redirect/112741", "zipcode": 90059, "categories": ["Chlamydia Testing", "Conventional HIV Blood Testing", "Gonorrhea Testing", "Herpes Testing", "Rapid HIV Blood Testing", "Syphilis Testing"], "telephone": "800-576-5544"}, {"languages": ["English", "Spanish"], "city": "West Covina", "state": "CA", "street": "420 S Glendora Ave", "name": "East Valley Community Health Center Incorporated", "location": ["34.0672090", "-117.9247080"], "cdclink": "https://gettested.cdc.gov/gettested_redirect/18633", "zipcode": 91790, "categories": ["Chlamydia Testing", "Hepatitis B Vaccine", "HPV Vaccine", "Rapid HIV Blood Testing", "Syphilis Testing"], "telephone": "626-919-4333"}, {"languages": ["English", "Spanish"], "city": "Whittier", "state": "CA", "street": "7643 S Painter Ave", "name": "Los Angeles County Department of Public Health", "location": ["33.9724035", "-118.0331490"], "cdclink": "https://gettested.cdc.gov/gettested_redirect/109537", "zipcode": 90602, "categories": ["Chlamydia Testing", "Conventional HIV Blood Testing", "Gonorrhea Testing", "Hepatitis B Vaccine", "Herpes Testing", "HPV Vaccine", "Syphilis Testing"], "telephone": "562-464-5350"}, {"languages": ["English", "Spanish", "Interpretation Services Available for Non-English Languages"], "city": "Whittier", "state": "CA", "street": "7655 Greenleaf Ave", "name": "Planned Parenthood Los Angeles", "location": ["33.9720022", "-118.0377213"], "cdclink": "https://gettested.cdc.gov/gettested_redirect/111159", "zipcode": 90602, "categories": ["Chlamydia Testing", "Conventional HIV Blood Testing", "Gonorrhea Testing", "Hepatitis B Vaccine", "Herpes Testing", "Syphilis Testing"], "telephone": "800-576-5544"}, {"languages": ["English", "Spanish"], "city": "Lynwood", "state": "CA", "street": "3591 E Imperial Hwy", "name": "Wesley Health Centers", "location": ["33.9306956", "-118.2055316"], "cdclink": "https://gettested.cdc.gov/gettested_redirect/113803", "zipcode": 90262, "categories": ["Chlamydia Testing", "Conventional HIV Blood Testing", "Gonorrhea Testing", "Hepatitis B Vaccine", "Herpes Testing", "Syphilis Testing"], "telephone": "866-733-5924"}, {"languages": ["English", "Spanish", "Interpretation Services Available for Non-English Languages"], "city": "Pacoima", "state": "CA", "street": "12756 Van Nuys Blvd", "name": "Northeast Valley Health Corporation", "location": ["34.2739012", "-118.4107752"], "cdclink": "https://gettested.cdc.gov/gettested_redirect/16901", "zipcode": 91331, "categories": ["Chlamydia Testing", "Conventional HIV Blood Testing", "Gonorrhea Testing", "Hepatitis B Vaccine", "Syphilis Testing"], "telephone": "818-896-0531"}, {"languages": ["English", "Spanish", "Tagalog"], "city": "La Puente", "state": "CA", "street": "15229 E Amar Rd", "name": "Bay Area Addiction Research and Treatment Incorporated", "location": ["34.0379952", "-117.9525044"], "cdclink": "https://gettested.cdc.gov/gettested_redirect/19427", "zipcode": 91744, "categories": ["Chlamydia Testing", "Conventional HIV Blood Testing", "Gonorrhea Testing", "Syphilis Testing"], "telephone": "626-855-5090"}, {"languages": ["English", "Spanish"], "city": "Canoga Park", "state": "CA", "street": "7107 Remmet Ave", "name": "Northeast Valley Health Corporation", "location": ["34.1994180", "-118.6005762"], "cdclink": "https://gettested.cdc.gov/gettested_redirect/111227", "zipcode": 91303, "categories": ["Chlamydia Testing", "Gonorrhea Testing", "Hepatitis B Vaccine", "Rapid HIV Blood Testing", "Syphilis Testing"], "telephone": "818-340-3570"}, {"languages": ["English", "Spanish", "Interpretation Services Available for Non-English Languages"], "city": "Canoga Park", "state": "CA", "street": "21001 Sherman Way", "name": "Planned Parenthood Los Angeles", "location": ["34.2019562", "-118.5909523"], "cdclink": "https://gettested.cdc.gov/gettested_redirect/16909", "zipcode": 91303, "categories": ["Chlamydia Testing", "Conventional HIV Blood Testing", "Gonorrhea Testing", "Herpes Testing", "Rapid HIV Blood Testing", "Syphilis Testing"], "telephone": "800-576-5544"}, {"languages": ["English", "Spanish"], "city": "Compton", "state": "CA", "street": "2115 N Wilmington Ave", "name": "St Johns Well Child andFamily Center", "location": ["33.9118628", "-118.2394652"], "cdclink": "https://gettested.cdc.gov/gettested_redirect/111986", "zipcode": 90222, "categories": ["Chlamydia Testing", "Gonorrhea Testing", "Hepatitis B Vaccine", "Herpes Testing", "HPV Vaccine", "Rapid HIV Blood Testing", "Syphilis Testing"], "telephone": "310-603-1332"}, {"languages": ["English", "Spanish"], "city": "Santa Fe Springs", "state": "CA", "street": "11015 Bloomfield Ave", "name": "Los Angeles Centers for Alcohol and Drug Abuse", "location": ["33.9311179", "-118.0645074"], "cdclink": "https://gettested.cdc.gov/gettested_redirect/29491", "zipcode": 90670, "categories": ["Conventional HIV Blood Testing", "Rapid HIV Blood Testing"], "telephone": "562-906-2676"}, {"languages": ["English", "Hindi", "Spanish"], "city": "Gardena", "state": "CA", "street": "742 W Gardena Blvd", "name": "South Bay Family Healthcare Center", "location": ["33.8814057", "-118.2886954"], "cdclink": "https://gettested.cdc.gov/gettested_redirect/16241", "zipcode": 90247, "categories": ["Chlamydia Testing", "Conventional HIV Blood Testing", "Gonorrhea Testing", "Hepatitis B Vaccine", "Rapid HIV Blood Testing", "Syphilis Testing"], "telephone": "310-327-1357"}, {"languages": ["English", "Spanish"], "city": "West Hills", "state": "CA", "street": "22110 Roscoe Blvd", "name": "Westwind Health Services", "location": ["34.2193230", "-118.6082560"], "cdclink": "https://gettested.cdc.gov/gettested_redirect/34775", "zipcode": 91304, "categories": ["Chlamydia Testing", "Conventional HIV Blood Testing", "Gonorrhea Testing", "Herpes Testing", "Syphilis Testing"], "telephone": "818-704-6696"}, {"languages": ["English", "Spanish"], "city": "Compton", "state": "CA", "street": "15301 San Jose Ave", "name": "St Johns Well Child and Family Center", "location": ["33.8939067", "-118.1823212"], "cdclink": "https://gettested.cdc.gov/gettested_redirect/111992", "zipcode": 90221, "categories": ["Chlamydia Testing", "Conventional HIV Blood Testing", "Gonorrhea Testing", "Hepatitis B Vaccine", "Herpes Testing", "HPV Vaccine", "Syphilis Testing"], "telephone": "310-630-6825"}, {"languages": ["English", "Spanish"], "city": "E Rancho Dominguez", "state": "CA", "street": "15715 S Atlantic Ave", "name": "St Johns Well Child and Family Center", "location": ["33.8905313", "-118.1930308"], "cdclink": "https://gettested.cdc.gov/gettested_redirect/111988", "zipcode": 90221, "categories": ["Chlamydia Testing", "Conventional HIV Blood Testing", "Gonorrhea Testing", "Hepatitis B Vaccine", "HPV Vaccine", "Syphilis Testing"], "telephone": "310-604-5000"}, {"languages": ["English", "Spanish", "Interpretation Services Available for Non-English Languages"], "city": "Lawndale", "state": "CA", "street": "14623 Hawthorne Blvd", "name": "Planned Parenthood Los Angeles", "location": ["33.8985676", "-118.3530631"], "cdclink": "https://gettested.cdc.gov/gettested_redirect/111156", "zipcode": 90260, "categories": ["Chlamydia Testing", "Conventional HIV Blood Testing", "Gonorrhea Testing", "Hepatitis B Vaccine", "Herpes Testing", "HPV Vaccine", "Syphilis Testing"], "telephone": "800-576-5544"}, {"languages": ["English", "Spanish"], "city": "San Fernando", "state": "CA", "street": "1600 San Fernando Rd", "name": "Northeast Valley Health Corporation", "location": ["34.2887919", "-118.4484995"], "cdclink": "https://gettested.cdc.gov/gettested_redirect/16902", "zipcode": 91340, "categories": ["Chlamydia Testing", "Conventional HIV Blood Testing", "Gonorrhea Testing", "Hepatitis B Vaccine", "Syphilis Testing"], "telephone": "818-365-8086"}, {"languages": ["English", "Spanish"], "city": "Norwalk", "state": "CA", "street": "12360 E Firestone Blvd", "name": "Wesley Health Centers", "location": ["33.9059286", "-118.0698793"], "cdclink": "https://gettested.cdc.gov/gettested_redirect/111806", "zipcode": 90650, "categories": ["Chlamydia Testing", "Conventional HIV Blood Testing", "Gonorrhea Testing", "Hepatitis B Vaccine", "Syphilis Testing"], "telephone": "866-733-5924"}, {"languages": ["English", "Spanish", "Interpretation Services Available for Non-English Languages"], "city": "Glendora", "state": "CA", "street": "130 W Rte 66", "name": "Planned Parenthood Pasadena and San Gabriel Valley Incorporated", "location": ["34.1283563", "-117.8651083"], "cdclink": "https://gettested.cdc.gov/gettested_redirect/113219", "zipcode": 91740, "categories": ["Chlamydia Testing", "Gonorrhea Testing", "Herpes Testing", "HPV Vaccine", "Rapid HIV Blood Testing", "Syphilis Testing"], "telephone": "626-798-0706"}, {"languages": ["English", "Spanish"], "city": "Bellflower", "state": "CA", "street": "14371 Clark Ave", "name": "Wesley Health Centers", "location": ["33.9024030", "-118.1347437"], "cdclink": "https://gettested.cdc.gov/gettested_redirect/113802", "zipcode": 90706, "categories": ["Chlamydia Testing", "Conventional HIV Blood Testing", "Gonorrhea Testing", "Hepatitis B Vaccine", "Herpes Testing", "Syphilis Testing"], "telephone": "866-733-5924"}, {"languages": ["English", "Hindi", "Spanish"], "city": "Redondo Beach", "state": "CA", "street": "2114 Artesia Blvd", "name": "South Bay Family Healthcare Center", "location": ["33.8725797", "-118.3735509"], "cdclink": "https://gettested.cdc.gov/gettested_redirect/7634", "zipcode": 90278, "categories": ["Chlamydia Testing", "Conventional HIV Blood Testing", "Gonorrhea Testing", "Hepatitis B Vaccine", "Herpes Testing", "Syphilis Testing"], "telephone": "310-318-2521"}, {"languages": ["English", "Spanish"], "city": "Pomona", "state": "CA", "street": "502 W Holt Ave", "name": "Rite Medical Clinic Urgent Care", "location": ["34.0619907", "-117.7570486"], "cdclink": "https://gettested.cdc.gov/gettested_redirect/113242", "zipcode": 91768, "categories": ["Chlamydia Testing", "Conventional HIV Blood Testing", "Gonorrhea Testing", "Hepatitis B Vaccine", "Herpes Testing", "HPV Vaccine", "Syphilis Testing"], "telephone": "909-620-5699"}, {"languages": ["English", "Spanish", "Interpretation Services Available for Non-English Languages"], "city": "Lakewood", "state": "CA", "street": "5519 E Del Amo Blvd", "name": "Planned Parenthood Los Angeles", "location": ["33.8475028", "-118.1243046"], "cdclink": "https://gettested.cdc.gov/gettested_redirect/112347", "zipcode": 90713, "categories": ["Chlamydia Testing", "Conventional HIV Blood Testing", "Gonorrhea Testing", "Hepatitis B Vaccine", "Herpes Testing", "Syphilis Testing"], "telephone": "800-576-5544"}, {"languages": ["English", "Spanish", "Interpretation Services Available for Non-English Languages"], "city": "Lakewood", "state": "CA", "street": "5525 E Del Amo Blvd", "name": "Planned Parenthood Los Angeles", "location": ["33.8473613", "-118.1241154"], "cdclink": "https://gettested.cdc.gov/gettested_redirect/16914", "zipcode": 90713, "categories": ["Chlamydia Testing", "Conventional HIV Blood Testing", "Gonorrhea Testing", "Hepatitis B Vaccine", "Herpes Testing", "Syphilis Testing"], "telephone": "800-576-5544"}, {"languages": ["English", "Spanish", "Interpretation Services Available for Non-English Languages"], "city": "Torrance", "state": "CA", "street": "1124 W Carson St", "name": "Harbor-UCLA Medical Center", "location": ["33.8308175", "-118.2952526"], "cdclink": "https://gettested.cdc.gov/gettested_redirect/3368", "zipcode": 90502, "categories": ["Conventional HIV Blood Testing"], "telephone": "310-222-2365"}, {"languages": ["English", "Spanish"], "city": "Torrance", "state": "CA", "street": "711 Del Amo Blvd", "name": "Los Angeles County Department of Public Health", "location": ["33.8466382", "-118.2872533"], "cdclink": "https://gettested.cdc.gov/gettested_redirect/111285", "zipcode": 90502, "categories": ["Chlamydia Testing", "Conventional HIV Blood Testing", "Gonorrhea Testing", "Hepatitis B Vaccine", "Herpes Testing", "HPV Vaccine", "Syphilis Testing"], "telephone": "310-354-2300"}, {"languages": ["English", "Spanish"], "city": "Torrance", "state": "CA", "street": "1124 W Carson St", "name": "Womens Health Care Clinic", "location": ["33.8308175", "-118.2952526"], "cdclink": "https://gettested.cdc.gov/gettested_redirect/111686", "zipcode": 90502, "categories": ["Chlamydia Testing", "Conventional HIV Blood Testing", "Gonorrhea Testing", "Herpes Testing", "Syphilis Testing"], "telephone": "310-222-3715"}, {"languages": ["English", "Spanish"], "city": "Pomona", "state": "CA", "street": "180 E Mission Blvd", "name": "Bienestar Human Services Incorporated", "location": ["34.0548412", "-117.7491879"], "cdclink": "https://gettested.cdc.gov/gettested_redirect/100331", "zipcode": 91766, "categories": ["Rapid HIV Blood Testing"], "telephone": "909-397-7660"}, {"languages": ["English", "Spanish"], "city": "Pomona", "state": "CA", "street": "1555 S Garey Ave", "name": "East Valley Community Health Center", "location": ["34.0431847", "-117.7505034"], "cdclink": "https://gettested.cdc.gov/gettested_redirect/27445", "zipcode": 91766, "categories": ["Chlamydia Testing", "Gonorrhea Testing", "Hepatitis B Vaccine", "Herpes Testing", "Rapid HIV Blood Testing", "Syphilis Testing"], "telephone": "626-919-4333"}, {"languages": ["English", "Spanish"], "city": "Pomona", "state": "CA", "street": "750 S Park Ave", "name": "Los Angeles County Department of Public Health", "location": ["34.0527502", "-117.7539287"], "cdclink": "https://gettested.cdc.gov/gettested_redirect/110051", "zipcode": 91766, "categories": ["Chlamydia Testing", "Conventional HIV Blood Testing", "Gonorrhea Testing", "Hepatitis B Vaccine", "Herpes Testing", "HPV Vaccine", "Syphilis Testing"], "telephone": "909-868-0235"}, {"languages": ["English", "Spanish"], "city": "Buena Park", "state": "CA", "street": "8352 Commonwealth Ave", "name": "Obria Medical Clinics", "location": ["33.8695927", "-117.9874085"], "cdclink": "https://gettested.cdc.gov/gettested_redirect/113344", "zipcode": 90621, "categories": ["Chlamydia Testing", "Conventional HIV Blood Testing", "Gonorrhea Testing", "Syphilis Testing"], "telephone": "657-239-0079"}, {"languages": ["English", "Spanish"], "city": "Redondo Beach", "state": "CA", "street": "520 N Prospect Ave", "name": "AHF Redondo Beach Healthcare Center", "location": ["33.8533857", "-118.3798561"], "cdclink": "https://gettested.cdc.gov/gettested_redirect/113305", "zipcode": 90277, "categories": ["Rapid HIV Blood Testing"], "telephone": "310-374-5475"}, {"languages": ["English", "Spanish", "Interpretation Services Available for Non-English Languages"], "city": "Pomona", "state": "CA", "street": "1550 N Garey Ave", "name": "Planned Parenthood Los Angeles", "location": ["34.0735979", "-117.7518667"], "cdclink": "https://gettested.cdc.gov/gettested_redirect/16915", "zipcode": 91767, "categories": ["Chlamydia Testing", "Conventional HIV Blood Testing", "Gonorrhea Testing", "Hepatitis B Vaccine", "Herpes Testing", "HPV Vaccine", "Syphilis Testing"], "telephone": "800-576-5544"}, {"languages": ["English", "Spanish"], "city": "Simi Valley", "state": "CA", "street": "4370 Eve Road", "name": "Clinicas del Camino Real Incorporated", "location": ["34.2823130", "-118.7094830"], "cdclink": "https://gettested.cdc.gov/gettested_redirect/113957", "zipcode": 93063, "categories": ["Chlamydia Testing", "Conventional HIV Blood Testing", "Gonorrhea Testing", "Hepatitis B Vaccine", "HPV Vaccine", "Syphilis Testing"], "telephone": "805-915-4400"}, {"languages": ["English", "Spanish"], "city": "Simi Valley", "state": "CA", "street": "2060 Tapo St", "name": "Free Clinic of Simi Valley", "location": ["34.2730431", "-118.7085527"], "cdclink": "https://gettested.cdc.gov/gettested_redirect/25819", "zipcode": 93063, "categories": ["Chlamydia Testing", "Gonorrhea Testing", "Syphilis Testing"], "telephone": "805-522-3733"}, {"languages": ["English", "Spanish"], "city": "Simi Valley", "state": "CA", "street": "1424 Madera Rd", "name": "Clinicas del Camino Real Incorporated", "location": ["34.2647806", "-118.7958456"], "cdclink": "https://gettested.cdc.gov/gettested_redirect/112915", "zipcode": 93065, "categories": ["Chlamydia Testing", "Conventional HIV Blood Testing", "Gonorrhea Testing", "Hepatitis B Vaccine", "HPV Vaccine", "Syphilis Testing"], "telephone": "805-522-5722"}, {"languages": ["English", "Spanish"], "city": "Long Beach", "state": "CA", "street": "261 E Willow St", "name": "Obria Medical Clinics", "location": ["33.8056794", "-118.1902219"], "cdclink": "https://gettested.cdc.gov/gettested_redirect/111935", "zipcode": 90806, "categories": ["Chlamydia Testing", "Conventional HIV Blood Testing", "Gonorrhea Testing", "Syphilis Testing"], "telephone": "562-290-0212"}, {"languages": ["English", "Spanish", "Interpretation Services Available for Non-English Languages"], "city": "Long Beach", "state": "CA", "street": "2690 Pacific Ave", "name": "Planned Parenthood Los Angeles", "location": ["33.8058414", "-118.1933920"], "cdclink": "https://gettested.cdc.gov/gettested_redirect/111780", "zipcode": 90806, "categories": ["Chlamydia Testing", "Conventional HIV Blood Testing", "Gonorrhea Testing", "Hepatitis B Vaccine", "Herpes Testing", "HPV Vaccine", "Syphilis Testing"], "telephone": "800-576-5544"}, {"languages": ["English", "Spanish", "Interpretation Services Available for Non-English Languages"], "city": "Upland", "state": "CA", "street": "918 W Foothill Blvd", "name": "Planned Parenthood of Orange and San Bernardino Counties", "location": ["34.1062919", "-117.6636065"], "cdclink": "https://gettested.cdc.gov/gettested_redirect/25923", "zipcode": 91786, "categories": ["Chlamydia Testing", "Gonorrhea Testing", "Hepatitis B Vaccine", "Herpes Testing", "HPV Vaccine", "Rapid HIV Blood Testing", "Syphilis Testing"], "telephone": "909-890-5511"}, {"languages": ["English", "Spanish"], "city": "Wilmington", "state": "CA", "street": "510 W Anaheim St", "name": "1350 Club", "location": ["33.7794657", "-118.2681160"], "cdclink": "https://gettested.cdc.gov/gettested_redirect/113116", "zipcode": 90744, "categories": ["Chlamydia Testing", "Gonorrhea Testing", "Rapid HIV Blood Testing", "Syphilis Testing"], "telephone": "310-830-4784"}, {"languages": ["English", "Spanish"], "city": "Long Beach", "state": "CA", "street": "2525 Grand Ave", "name": "Long Beach Department of Health and Human Services", "location": ["33.8026766", "-118.1487985"], "cdclink": "https://gettested.cdc.gov/gettested_redirect/10573", "zipcode": 90815, "categories": ["Chlamydia Testing", "Conventional HIV Blood Testing", "Gonorrhea Testing", "Hepatitis B Vaccine", "Herpes Testing", "HPV Vaccine", "Rapid HIV Blood Testing", "Syphilis Testing"], "telephone": "562-570-4000"}, {"languages": ["English", "Spanish", "Vietnamese", "Cambodian/Khmer"], "city": "Long Beach", "state": "CA", "street": "1333 Chestnut Ave", "name": "Los Angeles County Department of Health Services", "location": ["33.7835589", "-118.1967062"], "cdclink": "https://gettested.cdc.gov/gettested_redirect/24494", "zipcode": 90813, "categories": ["Conventional HIV Blood Testing"], "telephone": "562-599-2153"}, {"languages": ["English", "Spanish"], "city": "Long Beach", "state": "CA", "street": "3500 E Pacific Coast Hwy", "name": "Long Beach Out of the Closet Thrift Store", "location": ["33.7896208", "-118.1510130"], "cdclink": "https://gettested.cdc.gov/gettested_redirect/111712", "zipcode": 90804, "categories": ["Rapid HIV Blood Testing"], "telephone": "562-494-0340"}, {"languages": ["English", "Spanish", "Interpretation Services Available for Non-English Languages"], "city": "Anaheim", "state": "CA", "street": "303 W Lincoln", "name": "Planned Parenthood of Orange and San Bernardino Counties Incorporated", "location": ["33.8352459", "-117.9179874"], "cdclink": "https://gettested.cdc.gov/gettested_redirect/111121", "zipcode": 92805, "categories": ["Chlamydia Testing", "Gonorrhea Testing", "Herpes Testing", "HPV Vaccine", "Rapid HIV Blood Testing", "Syphilis Testing"], "telephone": "714-922-4100"}, {"languages": ["English", "Spanish"], "city": "Newbury Park", "state": "CA", "street": "1000 Newbury Rd", "name": "Clinicas del Camino Real Incorporated", "location": ["34.1827610", "-118.9043670"], "cdclink": "https://gettested.cdc.gov/gettested_redirect/111671", "zipcode": 91320, "categories": ["Chlamydia Testing", "Conventional HIV Blood Testing", "Gonorrhea Testing", "Hepatitis B Vaccine", "HPV Vaccine", "Syphilis Testing"], "telephone": "805-647-6353"}, {"languages": ["English", "Spanish"], "city": "Thousand Oaks", "state": "CA", "street": "1200 W Hillcrest Dr", "name": "Planned Parenthood of Santa Barbara Ventura and San Luis Obispo Counties Incorporated", "location": ["34.1848847", "-118.9070190"], "cdclink": "https://gettested.cdc.gov/gettested_redirect/111168", "zipcode": 91320, "categories": ["Chlamydia Testing", "Conventional HIV Blood Testing", "Gonorrhea Testing", "Herpes Testing", "HPV Vaccine", "Rapid HIV Blood Testing", "Syphilis Testing"], "telephone": "888-898-3806"}, {"languages": ["English", "Spanish"], "city": "Long Beach", "state": "CA", "street": "2017 E 4th St", "name": "LGBTQ Center of Long Beach", "location": ["33.7719820", "-118.1671300"], "cdclink": "https://gettested.cdc.gov/gettested_redirect/2347", "zipcode": 90814, "categories": ["Chlamydia Testing", "Gonorrhea Testing", "Rapid HIV Blood Testing", "Syphilis Testing"], "telephone": "562-434-4455"}, {"languages": ["English", "Spanish"], "city": "Ontario", "state": "CA", "street": "150 E Holt Blvd", "name": "San Bernardino County Department of Public Health", "location": ["34.0633340", "-117.6503164"], "cdclink": "https://gettested.cdc.gov/gettested_redirect/17013", "zipcode": 91761, "categories": ["Chlamydia Testing", "Conventional HIV Blood Testing", "Gonorrhea Testing", "Hepatitis B Vaccine", "HPV Vaccine", "Syphilis Testing"], "telephone": "800-722-4777"}, {"languages": ["English", "Spanish"], "city": "Moorpark", "state": "CA", "street": "4279 Tierra Rejada Rd", "name": "Clinicas del Camino Real Incorporated", "location": ["34.2680789", "-118.8998698"], "cdclink": "https://gettested.cdc.gov/gettested_redirect/112914", "zipcode": 93021, "categories": ["Chlamydia Testing", "Conventional HIV Blood Testing", "Gonorrhea Testing", "Hepatitis B Vaccine", "HPV Vaccine", "Syphilis Testing"], "telephone": "805-222-2323"}, {"languages": ["English", "Spanish"], "city": "Rancho Cucamonga", "state": "CA", "street": "8263 Grove Ave", "name": "AHF Upland Healthcare Center", "location": ["34.1043587", "-117.6279940"], "cdclink": "https://gettested.cdc.gov/gettested_redirect/21479", "zipcode": 91730, "categories": ["Conventional HIV Blood Testing"], "telephone": "909-579-0708"}, {"languages": ["English", "Vietnamese"], "city": "Garden Grove", "state": "CA", "street": "9862 Chapman Ave", "name": "Asian Health Center", "location": ["33.7879006", "-117.9607644"], "cdclink": "https://gettested.cdc.gov/gettested_redirect/37313", "zipcode": 92841, "categories": ["Chlamydia Testing", "Conventional HIV Blood Testing", "Hepatitis B Vaccine", "HPV Vaccine", "Syphilis Testing"], "telephone": "714-418-2040"}, {"languages": ["English", "Vietnamese"], "city": "Garden Grove", "state": "CA", "street": "7761 Garden Blvd", "name": "Nhan Hoa Comprehensive Health Care Clinic", "location": ["33.7743060", "-117.9966900"], "cdclink": "https://gettested.cdc.gov/gettested_redirect/37308", "zipcode": 92841, "categories": ["Chlamydia Testing", "Conventional HIV Blood Testing", "Gonorrhea Testing", "Hepatitis B Vaccine", "Herpes Testing", "Syphilis Testing"], "telephone": "714-898-8888"}, {"languages": ["English", "Spanish", "Interpretation Services Available for Non-English Languages"], "city": "Santa Clarita", "state": "CA", "street": "18533 Soledad Canyon Rd", "name": "Northeast Valley Health Corporation", "location": ["34.4178381", "-118.4565260"], "cdclink": "https://gettested.cdc.gov/gettested_redirect/112863", "zipcode": 91351, "categories": ["Chlamydia Testing", "Conventional HIV Blood Testing", "Gonorrhea Testing", "Syphilis Testing"], "telephone": "661-673-8800"}, {"languages": ["English", "Spanish"], "city": "Valencia", "state": "CA", "street": "23763 Valencia Blvd", "name": "Northeast Valley Health Corporation", "location": ["34.4086050", "-118.5749297"], "cdclink": "https://gettested.cdc.gov/gettested_redirect/111320", "zipcode": 91355, "categories": ["Chlamydia Testing", "Conventional HIV Blood Testing", "Gonorrhea Testing", "Hepatitis B Vaccine", "Rapid HIV Blood Testing", "Syphilis Testing"], "telephone": "661-287-1551"}, {"languages": ["English"], "city": "San Pedro", "state": "CA", "street": "593 W 6th St", "name": "Harbor Community Clinic", "location": ["33.7385465", "-118.2899313"], "cdclink": "https://gettested.cdc.gov/gettested_redirect/111936", "zipcode": 90731, "categories": ["Chlamydia Testing", "Conventional HIV Blood Testing", "Gonorrhea Testing", "Syphilis Testing"], "telephone": "310-547-0202"}, {"languages": ["English", "Hindi", "Spanish", "Vietnamese", "Interpretation Services Available for Non-English Languages"], "city": "Westminster", "state": "CA", "street": "14372 Beach Blvd", "name": "Planned Parenthood of Orange and San Bernardino Counties Incorporated", "location": ["33.7528293", "-117.9885483"], "cdclink": "https://gettested.cdc.gov/gettested_redirect/111127", "zipcode": 92683, "categories": ["Chlamydia Testing", "Gonorrhea Testing", "Hepatitis B Vaccine", "Herpes Testing", "HPV Vaccine", "Rapid HIV Blood Testing", "Syphilis Testing"], "telephone": "714-922-4100"}, {"languages": ["Chinese", "English", "Japanese", "Korean", "Tagalog", "Vietnamese"], "city": "Garden Grove", "state": "CA", "street": "12900 Garden Grove Blvd", "name": "APAIT Health Center", "location": ["33.7738794", "-117.9073468"], "cdclink": "https://gettested.cdc.gov/gettested_redirect/112649", "zipcode": 92843, "categories": ["Conventional HIV Blood Testing", "Rapid HIV Blood Testing"], "telephone": "714-636-1349"}, {"languages": ["English", "Spanish"], "city": "Orange", "state": "CA", "street": "1215 E Chapman Ave", "name": "Obria Medical Clinics", "location": ["33.7881045", "-117.8405265"], "cdclink": "https://gettested.cdc.gov/gettested_redirect/111978", "zipcode": 92866, "categories": ["Chlamydia Testing", "Conventional HIV Blood Testing", "Gonorrhea Testing", "Syphilis Testing"], "telephone": "714-516-9045"}, {"languages": ["Arabic", "English", "Spanish", "Vietnamese", "Interpretation Services Available for Non-English Languages"], "city": "Orange", "state": "CA", "street": "700 S Tustin St", "name": "Planned Parenthood of Orange and San Bernardino Counties Incorporated", "location": ["33.7768912", "-117.8364353"], "cdclink": "https://gettested.cdc.gov/gettested_redirect/111124", "zipcode": 92866, "categories": ["Chlamydia Testing", "Gonorrhea Testing", "Herpes Testing", "HPV Vaccine", "Rapid HIV Blood Testing", "Syphilis Testing"], "telephone": "714-922-4100"}, {"languages": ["English", "Korean", "Spanish", "Tagalog", "Vietnamese"], "city": "Santa Ana", "state": "CA", "street": "1725 W 17th St", "name": "Orange County Health Care Agency", "location": ["33.7606975", "-117.8926087"], "cdclink": "https://gettested.cdc.gov/gettested_redirect/646", "zipcode": 92706, "categories": ["Chlamydia Testing", "Conventional HIV Blood Testing", "Gonorrhea Testing", "Hepatitis B Vaccine", "Rapid HIV Blood Testing", "Syphilis Testing"], "telephone": "714-834-8787"}, {"languages": ["English", "Spanish"], "city": "Santa Ana", "state": "CA", "street": "2708 Westminster Ave", "name": "Rendering Access to Disease-Prevention Advocacy and Retention", "location": ["33.7595639", "-117.9059875"], "cdclink": "https://gettested.cdc.gov/gettested_redirect/114397", "zipcode": 92706, "categories": ["Rapid HIV Blood Testing"], "telephone": "714-868-5602"}, {"languages": ["English", "Spanish"], "city": "Huntington Beach", "state": "CA", "street": "8041 Newman Ave", "name": "AltaMed Health Services Corporation", "location": ["33.7050728", "-117.9883166"], "cdclink": "https://gettested.cdc.gov/gettested_redirect/21122", "zipcode": 92647, "categories": ["Chlamydia Testing", "Conventional HIV Blood Testing", "Gonorrhea Testing", "Herpes Testing", "Syphilis Testing"], "telephone": "714-500-0224"}, {"languages": ["English", "Spanish"], "city": "Santa Ana", "state": "CA", "street": "1605 N Spurgeon St", "name": "LGBT Center of Orange County", "location": ["33.7593265", "-117.8648392"], "cdclink": "https://gettested.cdc.gov/gettested_redirect/2363", "zipcode": 92701, "categories": ["Rapid HIV Blood Testing"], "telephone": "714-953-5428"}, {"languages": ["Chinese", "English", "Spanish"], "city": "Corona", "state": "CA", "street": "505 S Buena Vista Ave", "name": "Riverside County Family Care Centers", "location": ["33.8779368", "-117.5769907"], "cdclink": "https://gettested.cdc.gov/gettested_redirect/37320", "zipcode": 92882, "categories": ["Chlamydia Testing", "Conventional HIV Blood Testing", "Gonorrhea Testing", "Hepatitis B Vaccine", "HPV Vaccine", "Syphilis Testing"], "telephone": "951-272-5445"}, {"languages": ["English", "Hindi", "Spanish", "Vietnamese", "Interpretation Services Available for Non-English Languages"], "city": "Santa Ana", "state": "CA", "street": "1421 E 17th St", "name": "Planned Parenthood of Orange and San Bernardino Counties Incorporated", "location": ["33.7602236", "-117.8478199"], "cdclink": "https://gettested.cdc.gov/gettested_redirect/5927", "zipcode": 92705, "categories": ["Chlamydia Testing", "Gonorrhea Testing", "Herpes Testing", "HPV Vaccine", "Rapid HIV Blood Testing", "Syphilis Testing"], "telephone": "714-922-4100"}, {"languages": ["English", "Spanish"], "city": "Fillmore", "state": "CA", "street": "355 Central Ave", "name": "Clinicas del Camino Real Incorporated", "location": ["34.4002878", "-118.9140401"], "cdclink": "https://gettested.cdc.gov/gettested_redirect/25521", "zipcode": 93015, "categories": ["Chlamydia Testing", "Conventional HIV Blood Testing", "Gonorrhea Testing", "Hepatitis B Vaccine", "Herpes Testing", "HPV Vaccine", "Syphilis Testing"], "telephone": "805-647-6353"}, {"languages": ["English", "Spanish"], "city": "Santa Ana", "state": "CA", "street": "1155 W Central Ave", "name": "AltaMed Health Services", "location": ["33.7131955", "-117.8843588"], "cdclink": "https://gettested.cdc.gov/gettested_redirect/113465", "zipcode": 92707, "categories": ["Chlamydia Testing", "Conventional HIV Blood Testing", "Gonorrhea Testing", "Hepatitis B Vaccine", "Herpes Testing", "HPV Vaccine", "Rapid HIV Blood Testing", "Syphilis Testing"], "telephone": "888-499-9303"}, {"languages": ["English", "Spanish"], "city": "Irvine", "state": "CA", "street": "17982 Sky Park Cir", "name": "AIDS Services Foundation Orange County", "location": ["33.6897119", "-117.8594309"], "cdclink": "https://gettested.cdc.gov/gettested_redirect/16233", "zipcode": 92614, "categories": ["Rapid HIV Blood Testing"], "telephone": "949-809-8775"}, {"languages": ["English", "Spanish", "Interpretation Services Available for Non-English Languages"], "city": "Costa Mesa", "state": "CA", "street": "601 W 19th St", "name": "Planned Parenthood of Orange and San Bernardino Counties Incorporated", "location": ["33.6430974", "-117.9235856"], "cdclink": "https://gettested.cdc.gov/gettested_redirect/111122", "zipcode": 92627, "categories": ["Chlamydia Testing", "Gonorrhea Testing", "Herpes Testing", "HPV Vaccine", "Rapid HIV Blood Testing", "Syphilis Testing"], "telephone": "714-922-4100"}, {"languages": ["English", "Spanish"], "city": "Costa Mesa", "state": "CA", "street": "2077 Harbor Blvd Ste C", "name": "Womens Health Care Specialists", "location": ["33.6498919", "-117.9195326"], "cdclink": "https://gettested.cdc.gov/gettested_redirect/113488", "zipcode": 92627, "categories": ["Chlamydia Testing", "Conventional HIV Blood Testing", "Gonorrhea Testing", "Herpes Testing", "Syphilis Testing"], "telephone": "949-722-2510"}, {"languages": ["English", "Spanish", "Interpretation Services Available for Non-English Languages"], "city": "Palmdale", "state": "CA", "street": "533 E Palmdale Blvd", "name": "Planned Parenthood Los Angeles", "location": ["34.5806414", "-118.1195341"], "cdclink": "https://gettested.cdc.gov/gettested_redirect/112348", "zipcode": 93550, "categories": ["Chlamydia Testing", "Conventional HIV Blood Testing", "Gonorrhea Testing", "Hepatitis B Vaccine", "Herpes Testing", "HPV Vaccine", "Syphilis Testing"], "telephone": "800-576-5544"}, {"languages": ["English", "Spanish"], "city": "Palmdale", "state": "CA", "street": "422 W Ave P Ste C280", "name": "Tarzana Treatment Centers Reseda", "location": ["34.6016771", "-118.1364599"], "cdclink": "https://gettested.cdc.gov/gettested_redirect/114177", "zipcode": 93551, "categories": ["Chlamydia Testing", "Gonorrhea Testing", "Rapid HIV Blood Testing", "Syphilis Testing"], "telephone": "661-729-9000"}, {"languages": ["Arabic", "English", "Spanish", "Vietnamese", "Interpretation Services Available for Non-English Languages"], "city": "Mission Viejo", "state": "CA", "street": "26137 La Paz Road", "name": "Planned Parenthood of Orange and San Bernardino Counties Incorporated", "location": ["33.6011139", "-117.6738246"], "cdclink": "https://gettested.cdc.gov/gettested_redirect/111123", "zipcode": 92691, "categories": ["Chlamydia Testing", "Gonorrhea Testing", "Herpes Testing", "HPV Vaccine", "Rapid HIV Blood Testing", "Syphilis Testing"], "telephone": "714-922-4100"}, {"languages": ["English", "Spanish"], "city": "Mission Viejo", "state": "CA", "street": "28201 Marguerite Pkwy", "name": "Obria Medical Clinics", "location": ["33.5540984", "-117.6716295"], "cdclink": "https://gettested.cdc.gov/gettested_redirect/111948", "zipcode": 92692, "categories": ["Chlamydia Testing", "Conventional HIV Blood Testing", "Gonorrhea Testing", "Syphilis Testing"], "telephone": "949-364-3928"}, {"languages": ["English", "Spanish"], "city": "Lancaster", "state": "CA", "street": "1669 W Avenue J", "name": "AHF Antelope Valley Healthcare Center", "location": ["34.6897748", "-118.1608770"], "cdclink": "https://gettested.cdc.gov/gettested_redirect/113306", "zipcode": 93534, "categories": ["Rapid HIV Blood Testing"], "telephone": "661-723-3244"}, {"languages": ["English", "Spanish"], "city": "Lancaster", "state": "CA", "street": "616 W Lancaster Blvd", "name": "Catalyst Foundation", "location": ["34.6977574", "-118.1402137"], "cdclink": "https://gettested.cdc.gov/gettested_redirect/112878", "zipcode": 93534, "categories": ["Rapid HIV Blood Testing"], "telephone": "661-948-8559"}, {"languages": ["English", "Spanish"], "city": "Reseda", "state": "CA", "street": "907 W Lancaster Blvd", "name": "Lancaster Office", "location": ["34.6946278", "-118.1473771"], "cdclink": "https://gettested.cdc.gov/gettested_redirect/114178", "zipcode": 93534, "categories": ["Chlamydia Testing", "Gonorrhea Testing", "Rapid HIV Blood Testing", "Syphilis Testing"], "telephone": "661-723-4829"}, {"languages": ["English", "Spanish", "Tagalog"], "city": "Lancaster", "state": "CA", "street": "43322 Gingham Ave", "name": "Bartz-Altadonna Community Health Center", "location": ["34.6701346", "-118.1217289"], "cdclink": "https://gettested.cdc.gov/gettested_redirect/28669", "zipcode": 93535, "categories": ["Chlamydia Testing", "Conventional HIV Blood Testing", "Gonorrhea Testing", "Hepatitis B Vaccine", "Herpes Testing", "HPV Vaccine", "Syphilis Testing"], "telephone": "661-874-4050"}, {"languages": ["English", "Spanish"], "city": "Lancaster", "state": "CA", "street": "335 E Ave K6", "name": "Los Angeles County Department of Public Health", "location": ["34.6698801", "-118.1248120"], "cdclink": "https://gettested.cdc.gov/gettested_redirect/23268", "zipcode": 93535, "categories": ["Chlamydia Testing", "Conventional HIV Blood Testing", "Gonorrhea Testing", "Hepatitis B Vaccine", "Herpes Testing", "HPV Vaccine", "Syphilis Testing"], "telephone": "661-723-4526"}, {"languages": ["English", "Spanish"], "city": "Laguna Beach", "state": "CA", "street": "362 3rd St", "name": "Laguna Beach Community Clinic", "location": ["33.5439924", "-117.7806689"], "cdclink": "https://gettested.cdc.gov/gettested_redirect/8824", "zipcode": 92651, "categories": ["Chlamydia Testing", "Conventional HIV Blood Testing", "Gonorrhea Testing", "Herpes Testing", "Rapid HIV Blood Testing", "Syphilis Testing"], "telephone": "949-494-0761"}, {"languages": ["English", "Spanish"], "city": "San Juan Capistrano", "state": "CA", "street": "30300 Camino Capistrano", "name": "Camino Health Center", "location": ["33.5229020", "-117.6680927"], "cdclink": "https://gettested.cdc.gov/gettested_redirect/37306", "zipcode": 92675, "categories": ["Chlamydia Testing", "Conventional HIV Blood Testing", "Gonorrhea Testing", "Syphilis Testing"], "telephone": "949-240-2272"}]