[{"website": "http://www.plannedparenthood.org/planned-parenthood-los-angeles", "city": "Los Angeles", "name": "Planned Parenthood Los Angeles", "eligibility": "If you are uninsured, you may qualify for a state-funded program or a lower fee scale. Please bring the following documents: photo ID. Fees for services are based on your household income. You will not be turned away because of your inability to pay.", "hours": {"Monday": {"dayend": "17:00", "daystart": "08:00"}, "Tuesday": {"dayend": "17:00", "daystart": "08:00"}, "Friday": {"dayend": "17:00", "daystart": "08:00"}, "Wednesday": {"dayend": "17:00", "daystart": "08:00"}, "Thursday": {"dayend": "17:00", "daystart": "08:00"}, "Saturday": {"dayend": "16:00", "daystart": "08:00"}}, "zipcode": 90029, "telephone": "800-576-5544", "languages": ["English", "Spanish", "Interpretation Services Available for Non-English Languages"], "state": "CA", "street": "1014 1/2 N Vermont Ave", "location": ["34.0901681", "-118.2912412"], "orgtype": "Clinic", "categories": ["Chlamydia Testing", "Conventional HIV Blood Testing", "Gonorrhea Testing", "Hepatitis B Vaccine", "Herpes Testing", "HPV Vaccine", "Syphilis Testing", "Chlamydia Test", "Conventional HIV Blood Test", "Gonorrhea Test", "Herpes Test", "Syphilis Test"], "cdclink": "https://gettested.cdc.gov/gettested_redirect/16905"},{"website": "http://www.aidshealth.org", "city": "Los Angeles", "name": "AIDS Healthcare Foundation", "eligibility": "Not available", "hours": {"Friday": {"dayend": "17:30", "daystart": "08:30"}, "Tuesday": {"dayend": "20:00", "daystart": "08:30"}, "Thursday": {"dayend": "17:30", "daystart": "08:30"}, "Wednesday": {"dayend": "17:30", "daystart": "08:30"}, "Monday": {"dayend": "17:30", "daystart": "08:30"}}, "zipcode": 90027, "telephone": "323-662-0492", "languages": ["English", "Spanish"], "email": "info@aidshealth.org", "state": "CA", "street": "1300 N Vermont Ave", "location": ["34.0962209", "-118.2905784"], "orgtype": "Clinic", "categories": ["Chlamydia Testing", "Rapid HIV Blood Testing", "Syphilis Testing", "Conventional HIV Blood Test", "Free HIV Testing"], "cdclink": "https://gettested.cdc.gov/gettested_redirect/36348"},{"website": "http://aphcv.org", "city": "Los Angeles", "name": "Asian Pacific Health Care Venture Incorporated", "eligibility": "Open the first through fourth Saturday of each month.", "zipcode": 90027, "telephone": "323-644-3888", "languages": ["Chinese", "English", "Japanese", "Korean", "Spanish", "Tagalog", "Vietnamese", "Cambodian/Khmer"], "email": "info@aphcv.org", "state": "CA", "street": "1530 Hillhurst Ave", "location": ["34.0989362", "-118.2870393"], "orgtype": "Clinic", "categories": ["Chlamydia Testing", "Conventional HIV Blood Testing", "Gonorrhea Testing", "Hepatitis B Vaccine", "Herpes Testing", "HPV Vaccine", "Syphilis Testing", "Chlamydia Test", "Conventional HIV Blood Test", "Syphilis Test", "Gonorrhea Test", "Herpes Test", "Hepatitis A Vaccine", "Hepatitis B Test"], "cdclink": "https://gettested.cdc.gov/gettested_redirect/34347"},{"website": "http://www.bienestar.org", "city": "Los Angeles", "name": "Bienestar Human Services Incorporated", "eligibility": "Not available", "hours": {"Friday": {"dayend": "19:00", "daystart": "10:00"}, "Tuesday": {"dayend": "19:00", "daystart": "10:00"}, "Thursday": {"dayend": "19:00", "daystart": "10:00"}, "Wednesday": {"dayend": "19:00", "daystart": "10:00"}, "Monday": {"dayend": "19:00", "daystart": "10:00"}}, "zipcode": 90027, "telephone": "323-660-9680", "languages": ["English", "Spanish"], "email": "info@bienestar.org", "state": "CA", "street": "4955 W Sunset Blvd", "location": ["34.0983774", "-118.2974677"], "orgtype": "Community Based Organization", "categories": ["Rapid HIV Blood Testing", "Free HIV Testing", "Rapid HIV Blood Test", "Rapid HIV Oral Test"], "cdclink": "https://gettested.cdc.gov/gettested_redirect/18958"},{"website": "http:// www.chla.org", "city": "Hollywood", "name": "Childrens Hospital Los Angeles", "eligibility": "Young people ages 12-24.", "hours": {"Friday": {"dayend": "16:30", "daystart": "09:00"}, "Tuesday": {"dayend": "16:30", "daystart": "09:00"}, "Thursday": {"dayend": "16:30", "daystart": "09:00"}, "Wednesday": {"dayend": "16:30", "daystart": "09:00"}, "Monday": {"dayend": "16:30", "daystart": "09:00"}}, "zipcode": 90027, "telephone": "323-361-7514", "languages": ["English", "Spanish"], "email": "ggranados@chla.usc.edu", "state": "CA", "street": "5000 Sunset Blvd", "location": ["34.0978301", "-118.2985264"], "orgtype": "Clinic", "categories": ["HPV Vaccine", "Rapid HIV Blood Testing", "Free HIV Testing", "Hepatitis A Vaccine", "Rapid HIV Blood Test"], "cdclink": "https://gettested.cdc.gov/gettested_redirect/113092"},{"website": "http://covenanthousecalifornia.org/index-pg.php", "city": "Hollywood", "name": "Covenant House California", "eligibility": "Services available to youth ages 18-24.", "hours": {"Friday": {"dayend": "17:00", "daystart": "08:00"}, "Tuesday": {"dayend": "17:00", "daystart": "08:00"}, "Thursday": {"dayend": "17:00", "daystart": "08:00"}, "Wednesday": {"dayend": "17:00", "daystart": "08:00"}, "Monday": {"dayend": "17:00", "daystart": "08:00"}}, "zipcode": 90027, "telephone": "510-379-1010", "languages": ["English", "Spanish"], "email": "info@covenenthousecalifornia.org", "state": "CA", "street": "1325 N Western Ave", "location": ["34.0956149", "-118.3094990"], "orgtype": "Social Service Organization", "categories": ["Conventional HIV Blood Testing", "HPV Vaccine", "Conventional HIV Blood Test", "Free HIV Testing"], "cdclink": "https://gettested.cdc.gov/gettested_redirect/27490"},{"website": "http://publichealth.lacounty.gov/chs/spa4/index.htm", "city": "Los Angeles", "name": "Los Angeles County Department of Public Health", "eligibility": "HPV vaccines provided to those 18 and under through the VFC program. Los Angeles County offers free Hepatitis A & B vaccines for high risk groups in STD Clinics. Free TB testing is available at all Public Health Clinics for those at high risk of TB. Free HIV and STD testing is available at all Publi", "hours": {"Friday": {"dayend": "17:00", "daystart": "08:00"}, "Tuesday": {"dayend": "17:00", "daystart": "08:00"}, "Thursday": {"dayend": "17:00", "daystart": "08:00"}, "Wednesday": {"dayend": "17:00", "daystart": "08:00"}, "Monday": {"dayend": "17:00", "daystart": "08:00"}}, "zipcode": 90038, "telephone": "323-769-7800", "languages": ["English", "Spanish"], "email": "spa4@ph.lacounty.gov", "state": "CA", "street": "5205 Melrose Ave", "location": ["34.0837912", "-118.3140387"], "orgtype": "Clinic", "categories": ["Chlamydia Testing", "Conventional HIV Blood Testing", "Gonorrhea Testing", "Hepatitis B Vaccine", "Herpes Testing", "HPV Vaccine", "Syphilis Testing", "Chlamydia Test", "Conventional HIV Blood Test", "Free HIV Testing", "Free STD Testing", "Gonorrhea Test", "Hepatitis A Vaccine", "Hepatitis B Test", "Hepatitis C Test", "Herpes Test", "Syphilis Test"], "cdclink": "https://gettested.cdc.gov/gettested_redirect/110056"},{"website": "http://www.lagaycenter.org", "city": "Los Angeles", "name": "Los Angeles Gay and Lesbian Center", "eligibility": "Not available", "zipcode": 90038, "telephone": "323-860-2280", "languages": ["English"], "email": "youthservices@lagaycenter.org", "state": "CA", "street": "1220 N Highland Ave", "location": ["34.0932161", "-118.3382476"], "orgtype": "Clinic", "categories": ["Chlamydia Testing", "Gonorrhea Testing", "Rapid HIV Blood Testing", "Syphilis Testing", "Chlamydia Test", "Rapid HIV Blood Test", "Syphilis Test", "Gonorrhea Test"], "cdclink": "https://gettested.cdc.gov/gettested_redirect/111717"},{"website": "http://sabancommunityclinic.org", "city": "Los Angeles", "name": "Saban Community Clinic", "eligibility": "No appointment needed for HIV testing. Appointment needed for STD testing.", "hours": {"Monday": {"dayend": "21:00", "daystart": "08:30"}, "Tuesday": {"dayend": "21:00", "daystart": "08:30"}, "Friday": {"dayend": "21:00", "daystart": "08:30"}, "Wednesday": {"dayend": "21:00", "daystart": "08:30"}, "Thursday": {"dayend": "21:00", "daystart": "08:30"}, "Saturday": {"dayend": "12:00", "daystart": "08:30"}}, "zipcode": 90038, "telephone": "323-330-1819", "languages": ["English", "Spanish"], "state": "CA", "street": "5205 Melrose Ave", "location": ["34.0837912", "-118.3140387"], "orgtype": "Clinic", "categories": ["Chlamydia Testing", "Gonorrhea Testing", "Hepatitis B Vaccine", "HPV Vaccine", "Rapid HIV Blood Testing", "Syphilis Testing", "Chlamydia Test", "Free HIV Testing", "Gonorrhea Test", "Hepatitis A Vaccine", "Rapid HIV Blood Test", "Syphilis Test"], "cdclink": "https://gettested.cdc.gov/gettested_redirect/113971"},{"website": "http://hollywoodhealthcenter.com", "city": "Los Angeles", "name": "Hollywood Health Center", "eligibility": "Not available", "hours": {"Friday": {"dayend": "18:00", "daystart": "08:00"}, "Tuesday": {"dayend": "18:00", "daystart": "08:00"}, "Thursday": {"dayend": "18:00", "daystart": "08:00"}, "Wednesday": {"dayend": "18:00", "daystart": "08:00"}, "Monday": {"dayend": "18:00", "daystart": "08:00"}}, "zipcode": 90004, "telephone": "323-461-9355", "languages": ["English", "Spanish"], "email": "hollywoodhealthcenter@ymail.com", "state": "CA", "street": "321 N Larchmont Blvd", "location": ["34.0770087", "-118.3239481"], "orgtype": "Clinic", "categories": ["Chlamydia Testing", "Conventional HIV Blood Testing", "Gonorrhea Testing", "Hepatitis B Vaccine", "Herpes Testing", "HPV Vaccine", "Syphilis Testing", "Chlamydia Test", "Conventional HIV Blood Test", "Gonorrhea Test", "Hepatitis A Vaccine", "Hepatitis B Test", "Hepatitis C Test", "Herpes Test", "Syphilis Test"], "cdclink": "https://gettested.cdc.gov/gettested_redirect/7471"},{"website": "http://www.outofthecloset.org", "city": "Los Angeles", "name": "Hollywood Out of the Closet Thrift Store", "eligibility": "Not available", "hours": {"Monday": {"dayend": "19:00", "daystart": "10:00"}, "Tuesday": {"dayend": "19:00", "daystart": "10:00"}, "Friday": {"dayend": "19:00", "daystart": "10:00"}, "Wednesday": {"dayend": "19:00", "daystart": "10:00"}, "Thursday": {"dayend": "19:00", "daystart": "10:00"}, "Sunday": {"dayend": "19:00", "daystart": "10:00"}, "Saturday": {"dayend": "19:00", "daystart": "10:00"}}, "zipcode": 90028, "telephone": "323-467-6811", "languages": ["English", "Spanish"], "email": "webmaster@aidshealth.org", "state": "CA", "street": "6210 W Sunset Blvd", "location": ["34.0975475", "-118.3244396"], "orgtype": "AIDS Service Organization", "categories": ["Rapid HIV Blood Testing", "Free HIV Testing", "Rapid HIV Blood Test"], "cdclink": "https://gettested.cdc.gov/gettested_redirect/111321"},{"website": "http://www.lalgbtcenter.org", "city": "Los Angeles", "name": "Los Angeles LGBT Center", "eligibility": "Not available", "hours": {"Friday": {"dayend": "20:00", "daystart": "08:00"}, "Tuesday": {"dayend": "20:00", "daystart": "08:00"}, "Thursday": {"dayend": "20:00", "daystart": "08:00"}, "Wednesday": {"dayend": "20:00", "daystart": "08:00"}, "Monday": {"dayend": "20:00", "daystart": "08:00"}}, "zipcode": 90028, "telephone": "323-993-7500", "languages": ["Chinese", "English", "Japanese", "Spanish"], "email": "healthservices@lagaycenter.org", "state": "CA", "street": "1625 N Schrader Blvd", "location": ["34.1005263", "-118.3327332"], "orgtype": "Clinic", "categories": ["Chlamydia Testing", "Gonorrhea Testing", "Hepatitis B Vaccine", "Herpes Testing", "HPV Vaccine", "Rapid HIV Blood Testing", "Syphilis Testing", "Chlamydia Test", "Free HIV Testing", "Free Hepatitis C Testing", "Free STD Testing", "Gonorrhea Test", "Hepatitis A Vaccine", "Hepatitis B Test", "Hepatitis C Test", "Herpes Test", "Rapid HIV Blood Test", "Syphilis Test"], "cdclink": "https://gettested.cdc.gov/gettested_redirect/18306"},{"website": "http://sabancommunityclinic.org", "city": "Los Angeles", "name": "Saban Community Clinic", "eligibility": "General Public. No appointment needed for HIV testing.  Appointment needed for STD testing.", "hours": {"Monday": {"dayend": "19:00", "daystart": "07:30"}, "Tuesday": {"dayend": "19:00", "daystart": "07:30"}, "Friday": {"dayend": "17:00", "daystart": "07:30"}, "Wednesday": {"dayend": "19:00", "daystart": "07:30"}, "Thursday": {"dayend": "19:00", "daystart": "07:30"}, "Saturday": {"dayend": "12:30", "daystart": "07:30"}}, "zipcode": 90028, "telephone": "323-653-1990", "languages": ["English", "Spanish"], "email": "prosales@sabancommunityclinic.org", "state": "CA", "street": "6043 Hollywood Blvd", "location": ["34.1019044", "-118.3215724"], "orgtype": "Clinic", "categories": ["Chlamydia Testing", "Gonorrhea Testing", "Hepatitis B Vaccine", "HPV Vaccine", "Rapid HIV Blood Testing", "Syphilis Testing", "Chlamydia Test", "Free HIV Testing", "Gonorrhea Test", "Hepatitis A Vaccine", "Rapid HIV Blood Test", "Syphilis Test"], "cdclink": "https://gettested.cdc.gov/gettested_redirect/7710"},{"website": "http://www.aphcv.org", "city": "Los Angeles", "name": "Belmont Health Center", "eligibility": "Services available to community members in the surrounding area. Testing done as part of family planning is free.", "hours": {"Friday": {"dayend": "17:00", "daystart": "08:30"}, "Tuesday": {"dayend": "17:00", "daystart": "08:30"}, "Thursday": {"dayend": "17:00", "daystart": "08:30"}, "Wednesday": {"dayend": "17:00", "daystart": "08:30"}, "Monday": {"dayend": "17:00", "daystart": "08:30"}}, "zipcode": 90026, "telephone": "323-644-3885", "languages": ["Chinese", "English", "Hindi", "Japanese", "Korean", "Spanish", "Tagalog", "Vietnamese"], "email": "info@aphcv.org", "state": "CA", "street": "180 Union Pl", "location": ["34.0618976", "-118.2651986"], "orgtype": "Clinic", "categories": ["Chlamydia Testing", "Conventional HIV Blood Testing", "Gonorrhea Testing", "Herpes Testing", "HPV Vaccine", "Rapid HIV Blood Testing", "Syphilis Testing", "Chlamydia Test", "Conventional HIV Blood Test", "Gonorrhea Test", "Hepatitis B Test", "Hepatitis C Test", "Herpes Test", "Rapid HIV Blood Test", "Syphilis Test"], "cdclink": "https://gettested.cdc.gov/gettested_redirect/112374"},{"website": "http://www.outofthecloset.org", "city": "Los Angeles", "name": "Echo Park Out of the Closet Thrift Store", "eligibility": "Not available", "hours": {"Monday": {"dayend": "19:00", "daystart": "10:00"}, "Tuesday": {"dayend": "19:00", "daystart": "10:00"}, "Friday": {"dayend": "19:00", "daystart": "10:00"}, "Wednesday": {"dayend": "19:00", "daystart": "10:00"}, "Thursday": {"dayend": "19:00", "daystart": "10:00"}, "Sunday": {"dayend": "18:00", "daystart": "10:00"}, "Saturday": {"dayend": "19:00", "daystart": "10:00"}}, "zipcode": 90026, "telephone": "213-484-3913", "languages": ["English", "Spanish"], "state": "CA", "street": "1724 W Sunset Blvd", "location": ["34.0773026", "-118.2594099"], "orgtype": "AIDS Service Organization", "categories": ["Rapid HIV Blood Testing", "Free HIV Testing", "Rapid HIV Blood Test"], "cdclink": "https://gettested.cdc.gov/gettested_redirect/111711"},{"website": "http://www.hsfreeclinic.org", "city": "Los Angeles", "name": "Hollywood Sunset Free Clinic", "eligibility": "Services for uninsured and low-income clients. Condoms available for free.", "zipcode": 90026, "telephone": "323-660-2400", "languages": ["English", "Spanish"], "email": "hollywoodsunsetfreeclinic@yahoo.com\t", "state": "CA", "street": "3324 W Sunset Blvd", "location": ["34.0870791", "-118.2758950"], "orgtype": "Clinic", "categories": ["Chlamydia Testing", "Conventional HIV Blood Testing", "Gonorrhea Testing", "Hepatitis B Vaccine", "Syphilis Testing", "Chlamydia Test", "Conventional HIV Blood Test", "Syphilis Test", "Gonorrhea Test", "Hepatitis A Vaccine"], "cdclink": "https://gettested.cdc.gov/gettested_redirect/4617"},{"website": "http://www.lakheir.org/", "city": "Los Angeles", "name": "S Mark Taper Foundation Community Clinic", "eligibility": "Not available", "zipcode": 90020, "telephone": "213-235-2500", "languages": ["English", "Korean"], "email": "Info@lakheir.org", "state": "CA", "street": "3727 W 6th St Ste 200", "location": ["34.0638657", "-118.3037835"], "orgtype": "Clinic", "categories": ["Chlamydia Testing", "Conventional HIV Blood Testing", "Gonorrhea Testing", "Hepatitis B Vaccine", "Herpes Testing", "HPV Vaccine", "Syphilis Testing", "Chlamydia Test", "Conventional HIV Blood Test", "Syphilis Test", "Gonorrhea Test", "Herpes Test", "Hepatitis A Vaccine"], "cdclink": "https://gettested.cdc.gov/gettested_redirect/10318"},{"website": "http://www.clinicaromero.com", "city": "Los Angeles", "name": "Clinica Monsenor Oscar A Romero Community Health Center", "eligibility": "Not available", "hours": {"Monday": {"dayend": "20:00", "daystart": "08:00"}, "Tuesday": {"dayend": "20:00", "daystart": "08:00"}, "Friday": {"dayend": "12:00", "daystart": "08:00"}, "Wednesday": {"dayend": "20:00", "daystart": "08:00"}, "Thursday": {"dayend": "20:00", "daystart": "08:00"}, "Saturday": {"dayend": "12:00", "daystart": "08:00"}}, "zipcode": 90057, "telephone": "213-989-7700", "languages": ["English", "Spanish"], "state": "CA", "street": "123 S Alvarado St", "location": ["34.0661040", "-118.2710930"], "orgtype": "Clinic", "categories": ["Chlamydia Testing", "Conventional HIV Blood Testing", "Gonorrhea Testing", "Hepatitis B Vaccine", "Herpes Testing", "Rapid HIV Blood Testing", "Syphilis Testing", "Chlamydia Test", "Conventional HIV Blood Test", "Free HIV Testing", "Gonorrhea Test", "Hepatitis A Vaccine", "Herpes Test", "Rapid HIV Oral Test", "Syphilis Test"], "cdclink": "https://gettested.cdc.gov/gettested_redirect/25689"},{"website": "http://midtowne.com/index.php?fuseaction=dsp_safersex&c_city=los%2Bangeles", "city": "Los Angeles", "name": "Melrose Spa", "eligibility": "Not available", "hours": {"Monday": {"dayend": "19:00", "daystart": "16:00"}, "Tuesday": {"dayend": "19:00", "daystart": "16:00"}, "Friday": {"dayend": "22:00", "daystart": "19:00"}, "Wednesday": {"dayend": "22:00", "daystart": "19:00"}, "Sunday": {"dayend": "19:00", "daystart": "16:00"}, "Saturday": {"dayend": "22:00", "daystart": "19:00"}}, "zipcode": 90046, "telephone": "323-937-2122", "languages": ["English", "Spanish"], "email": "lorenzot@midtowne.com", "state": "CA", "street": "7269 Melrose Ave", "location": ["34.0837063", "-118.3481722"], "orgtype": "Social Service Organization", "categories": ["Chlamydia Testing", "Gonorrhea Testing", "Rapid HIV Blood Testing", "Syphilis Testing", "Chlamydia Test", "Free HIV Testing", "Free STD Testing", "Gonorrhea Test", "Rapid HIV Blood Test", "Syphilis Test"], "cdclink": "https://gettested.cdc.gov/gettested_redirect/113115"},{"website": "http://outofthecloset.org", "city": "West Hollywood", "name": "Out of the Closet Thrift Store - West Hollywood", "eligibility": "Not available", "hours": {"Monday": {"dayend": "19:00", "daystart": "10:00"}, "Tuesday": {"dayend": "19:00", "daystart": "10:00"}, "Friday": {"dayend": "19:00", "daystart": "10:00"}, "Wednesday": {"dayend": "19:00", "daystart": "10:00"}, "Thursday": {"dayend": "19:00", "daystart": "10:00"}, "Sunday": {"dayend": "19:00", "daystart": "10:00"}, "Saturday": {"dayend": "19:00", "daystart": "10:00"}}, "zipcode": 90046, "telephone": "323-848-9760", "languages": ["English", "Spanish"], "state": "CA", "street": "8224 Santa Monica Blvd", "location": ["34.0905659", "-118.3678092"], "orgtype": "AIDS Service Organization", "categories": ["Rapid HIV Blood Testing", "Free HIV Testing", "Rapid HIV Blood Test"], "cdclink": "https://gettested.cdc.gov/gettested_redirect/113313"},{"website": "http://www.apla.org", "city": "Los Angeles", "name": "AIDS Project Los Angeles", "eligibility": "Testing open to the general public 13 and older.", "hours": {"Friday": {"dayend": "17:00", "daystart": "09:00"}, "Tuesday": {"dayend": "17:00", "daystart": "09:00"}, "Thursday": {"dayend": "17:00", "daystart": "09:00"}, "Wednesday": {"dayend": "17:00", "daystart": "09:00"}, "Monday": {"dayend": "17:00", "daystart": "09:00"}}, "zipcode": 90005, "telephone": "213-201-1504", "languages": ["English", "Spanish"], "email": "info@apla.org", "state": "CA", "street": "611 S Kingsley Dr", "location": ["34.0630656", "-118.3031461"], "orgtype": "AIDS Service Organization", "categories": ["Rapid HIV Blood Testing", "Free HIV Testing", "Rapid HIV Blood Test"], "cdclink": "https://gettested.cdc.gov/gettested_redirect/10383"},{"city": "Los Angeles", "name": "myLAB Box", "zipcode": 90068, "telephone": "213-290-4571", "languages": ["English"], "state": "CA", "street": "1905 Wilcox Ave", "location": ["34.1054523", "-118.3311972"], "categories": ["Chlamydia Testing", "Conventional HIV Blood Testing", "Gonorrhea Testing", "Rapid HIV Blood Testing"], "cdclink": "https://gettested.cdc.gov/gettested_redirect/114434"},{"website": "http://www.prepaidsprevention.com/contact.php", "city": "Los Angeles", "name": "PrEP4LA", "eligibility": "Closed daily from noon to 1:30 pm.", "hours": {"Friday": {"dayend": "17:00", "daystart": "09:00"}, "Tuesday": {"dayend": "17:00", "daystart": "09:00"}, "Thursday": {"dayend": "17:00", "daystart": "09:00"}, "Wednesday": {"dayend": "17:00", "daystart": "09:00"}, "Monday": {"dayend": "17:00", "daystart": "09:00"}}, "zipcode": 90036, "telephone": "310-710-5220", "languages": ["Arabic", "English", "French", "Spanish", "Vietnamese"], "email": "Info@prep4la.com", "state": "CA", "street": "5901 W Olympic Blvd", "location": ["34.0579333", "-118.3602384"], "orgtype": "Clinic", "categories": ["Chlamydia Testing", "Conventional HIV Blood Testing", "Gonorrhea Testing", "Herpes Testing", "Syphilis Testing", "Chlamydia Test", "Conventional HIV Blood Test", "Gonorrhea Test", "Hepatitis B Test", "Hepatitis C Test", "Herpes Test", "Syphilis Test"], "cdclink": "https://gettested.cdc.gov/gettested_redirect/114041"},{"website": "http://www.cscla.org", "city": "Los Angeles", "name": "Chinatown Service Center", "eligibility": "Free family planning and STD screening services are provided to those who qualify through the California Family PACT program.", "zipcode": 90012, "telephone": "213-808-1792", "languages": ["Chinese", "English", "Spanish", "Vietnamese"], "email": "cscinfo@cscla.org", "state": "CA", "street": "767 N Hill St", "location": ["34.0626634", "-118.2400525"], "orgtype": "Clinic", "categories": ["Chlamydia Testing", "Conventional HIV Blood Testing", "Gonorrhea Testing", "Hepatitis B Vaccine", "Syphilis Testing", "Chlamydia Test", "Conventional HIV Blood Test", "Syphilis Test", "Gonorrhea Test", "Hepatitis A Vaccine", "Hepatitis B Test"], "cdclink": "https://gettested.cdc.gov/gettested_redirect/13788"},{"website": "http://publichealth.lacounty.gov/chs/spa4/index.htm", "city": "Los Angeles", "name": "Los Angeles County Department of Public Health", "eligibility": "Los Angeles County offers free Hepatitis A & B vaccines for high risk groups in STD Clinics. Free TB testing is available at all Public Health Clinics for those at high risk of TB. Free HIV and STD testing is available at all Public Health Centers in Los Angeles County.", "hours": {}, "zipcode": 90012, "telephone": "213-240-8204", "languages": ["English", "Spanish"], "email": "spa4@ph.lacounty.gov", "state": "CA", "street": "241 N Figueroa St", "location": ["34.0593040", "-118.2503878"], "orgtype": "Clinic", "categories": ["Chlamydia Testing", "Conventional HIV Blood Testing", "Gonorrhea Testing", "Hepatitis B Vaccine", "Herpes Testing", "HPV Vaccine", "Syphilis Testing", "Chlamydia Test", "Conventional HIV Blood Test", "Free HIV Testing", "Free STD Testing", "Gonorrhea Test", "Hepatitis A Vaccine", "Hepatitis B Test", "Herpes Test", "Syphilis Test"], "cdclink": "https://gettested.cdc.gov/gettested_redirect/111330"},{"website": "http://www.lalgbtcenter.org", "city": "West Hollywood", "name": "Los Angeles LGBT Center", "eligibility": "For a full HIV/STD screening, you should bring your photo ID. If you are not comfortable showing a photo ID, you can be tested for HIV anonymously (without providing your name) at the McDonald/Wright building only. For STD testing, however, a photo ID is always required. To reduce wait time, appoint", "hours": {"Friday": {"dayend": "19:00", "daystart": "11:00"}, "Tuesday": {"dayend": "19:00", "daystart": "11:00"}, "Thursday": {"dayend": "19:00", "daystart": "11:00"}, "Wednesday": {"dayend": "19:00", "daystart": "11:00"}, "Monday": {"dayend": "19:00", "daystart": "11:00"}}, "zipcode": 90069, "telephone": "323-993-7440", "languages": ["English", "Spanish"], "email": "healthservices@lalgbtcenter.org", "state": "CA", "street": "8745 Santa Monica Blvd", "location": ["34.0868550", "-118.3814866"], "orgtype": "Clinic", "categories": ["Chlamydia Testing", "Gonorrhea Testing", "Rapid HIV Blood Testing", "Syphilis Testing", "Chlamydia Test", "Free HIV Testing", "Free Hepatitis C Testing", "Gonorrhea Test", "Hepatitis C Test", "Rapid HIV Blood Test", "Syphilis Test"], "cdclink": "https://gettested.cdc.gov/gettested_redirect/109884"},{"website": "http://mhfoundation.org", "city": "Los Angeles", "name": "Mens Health Foundation", "eligibility": "Not available", "hours": {}, "zipcode": 90069, "telephone": "310-550-1010", "languages": ["English", "Spanish"], "state": "CA", "street": "9201 Sunset Blvd", "location": ["34.0908596", "-118.3926447"], "orgtype": "Clinic", "categories": ["Chlamydia Testing", "Gonorrhea Testing", "Herpes Testing", "Rapid HIV Blood Testing", "Syphilis Testing", "Chlamydia Test", "Gonorrhea Test", "Hepatitis C Test", "Herpes Test", "Rapid HIV Blood Test", "Syphilis Test"], "cdclink": "https://gettested.cdc.gov/gettested_redirect/114045"},{"city": "Los Angeles", "name": "Planned Parenthood Los Angeles", "zipcode": 90069, "telephone": "800-576-5544", "languages": ["English", "Spanish", "Interpretation Services Available for Non-English Languages"], "state": "CA", "street": "825 N San Vicente Blvd", "location": ["34.0854020", "-118.3849180"], "categories": ["Chlamydia Testing", "Conventional HIV Blood Testing", "Gonorrhea Testing", "Herpes Testing", "Rapid HIV Blood Testing", "Syphilis Testing"], "cdclink": "https://gettested.cdc.gov/gettested_redirect/114346"},{"website": "http://www.wellchild.org", "city": "Los Angeles", "name": "St Johns Well Child and Family Center", "eligibility": "Services open to the General Public.", "hours": {"Monday": {"dayend": "17:00", "daystart": "08:30"}, "Tuesday": {"dayend": "19:00", "daystart": "10:30"}, "Friday": {"dayend": "17:00", "daystart": "08:30"}, "Wednesday": {"dayend": "17:00", "daystart": "08:30"}, "Thursday": {"dayend": "17:00", "daystart": "08:30"}, "Saturday": {"dayend": "15:30", "daystart": "07:00"}}, "zipcode": 90031, "telephone": "323-441-2139", "languages": ["English", "Spanish"], "email": "info@wellchild.org", "state": "CA", "street": "2512 Alta St", "location": ["34.0761483", "-118.2037120"], "orgtype": "Clinic", "categories": ["Chlamydia Testing", "Conventional HIV Blood Testing", "Gonorrhea Testing", "Hepatitis B Vaccine", "Herpes Testing", "HPV Vaccine", "Syphilis Testing", "Chlamydia Test", "Conventional HIV Blood Test", "Free HIV Testing", "Free STD Testing", "Gonorrhea Test", "Hepatitis B Test", "Hepatitis C Test", "Herpes Test", "Syphilis Test"], "cdclink": "https://gettested.cdc.gov/gettested_redirect/111989"},{"website": "http://www.lim-keith.com", "city": "Los Angeles", "name": "Lim-Keith Multispecialty Medical Clinic Incorporated", "eligibility": "Physicians specialize in the treatment of HIV/AIDS. In addition to HIV/AIDS Care, Lim-Keith Medical Clinic also offers HIV/AIDS testing, including conventional HIV blood testing, and resources on prevention.", "hours": {"Monday": {"dayend": "16:00", "daystart": "09:00"}, "Tuesday": {"dayend": "16:00", "daystart": "09:00"}, "Friday": {"dayend": "16:00", "daystart": "09:00"}, "Wednesday": {"dayend": "16:00", "daystart": "09:00"}, "Thursday": {"dayend": "16:00", "daystart": "09:00"}, "Saturday": {"dayend": "15:00", "daystart": "09:00"}}, "zipcode": 90048, "telephone": "323-964-1440", "languages": ["English", "Spanish"], "email": "inquiries@lim-keith.com", "state": "CA", "street": "6200 Wilshire Blvd", "location": ["34.0628452", "-118.3636665"], "orgtype": "Clinic", "categories": ["Chlamydia Testing", "Conventional HIV Blood Testing", "Gonorrhea Testing", "Herpes Testing", "Syphilis Testing", "Chlamydia Test", "Conventional HIV Blood Test", "Gonorrhea Test", "Herpes Test", "Syphilis Test"], "cdclink": "https://gettested.cdc.gov/gettested_redirect/10702"},{"website": "http://sabancommunityclinic.org", "city": "Los Angeles", "name": "Saban Community Clinic", "eligibility": "Due to funding requirements and other health care regulations, you will need to bri